[
  {
    "name": "Lestijärven tuulivoimapuisto",
    "english_name": "",
    "operator": "OX2",
    "power": "455 MW",
    "source": "wikidata",
    "method": "wind_turbine",
    "wikidata_id": "Q123300677",
    "latitude": 63.47131,
    "longitude": 24.61031,
    "municipality": "Lestijärvi",
    "county": "Keski-Pohjanmaan maakunta",
    "country": "Suomi"
  },
  {
    "name": "Pjelaxin tuulivoimapuisto",
    "english_name": "Pjelax Wind Farm",
    "operator": "Fortum; Helen",
    "power": "380 MW",
    "source": "wind",
    "method": "wind_turbine",
    "wikidata_id": "Q123484622",
    "latitude": 62.3824,
    "longitude": 21.48161,
    "municipality": "Närpes",
    "county": "Ostrobothnia",
    "country": "Finland"
  },
  {
    "name": "Lappfjärdin tuulivoimapuisto",
    "english_name": "Lappfjärd Wind Farm",
    "operator": "Wind Farm Lappfjärd",
    "power": "242 MW",
    "source": "wind",
    "method": "wind_turbine",
    "wikidata_id": "Q123469345",
    "latitude": 62.18938,
    "longitude": 21.5553,
    "municipality": "Kristinestad",
    "county": "Ostrobothnia",
    "country": "Finland"
  },
  {
    "name": "Imatran vesivoimalaitos",
    "english_name": "Imatra hydro-electric power plant",
    "operator": "Fortum",
    "power": "192 MW",
    "source": "hydro",
    "method": "run-of-the-river",
    "wikidata_id": "Q11864761",
    "latitude": 61.1668975,
    "longitude": 28.7744701,
    "municipality": "Imatra",
    "county": "South Karelia",
    "country": "Finland"
  },
  {
    "name": "Petäjäskosken voimalaitos",
    "english_name": "",
    "operator": "Kemijoki Oy",
    "power": "182 MW",
    "source": "hydro",
    "method": "",
    "wikidata_id": "Q11887859",
    "latitude": 66.2721,
    "longitude": 25.3361,
    "municipality": "Lappland",
    "county": "Regional State Administrative Agency for Lapland",
    "country": "Finland"
  },
  {
    "name": "Pirttikosken tunnelivoimalaitos",
    "english_name": "",
    "operator": "Kemijoki Oy",
    "power": "152 MW",
    "source": "hydro",
    "method": "run-of-the-river",
    "wikidata_id": "Q11888266",
    "latitude": 66.3403,
    "longitude": 27.1522,
    "municipality": "Rovaniemi",
    "county": "Lappland",
    "country": "Finland"
  },
  {
    "name": "Leipiön tuulivoimapuisto III",
    "english_name": "",
    "operator": "St1 Nordic",
    "power": "151 MW",
    "source": "wind",
    "method": "",
    "wikidata_id": "Q126042719",
    "latitude": null,
    "longitude": null,
    "municipality": null,
    "county": null,
    "country": null
  },
  {
    "name": "Pyhäkosken vesivoimalaitos",
    "english_name": "",
    "operator": "Fortum",
    "power": "147 MW",
    "source": "hydro",
    "method": "run-of-the-river",
    "wikidata_id": "Q11889254",
    "latitude": 64.8464,
    "longitude": 26.039830555,
    "municipality": "Muhos",
    "county": "North Ostrobothnia",
    "country": "Finland"
  },
  {
    "name": "Haapaniemen voimalaitos",
    "english_name": "",
    "operator": "Kuopion Energia",
    "power": "145 MW",
    "source": "biomass",
    "method": "",
    "wikidata_id": "Q5396398",
    "latitude": 62.879166666,
    "longitude": 27.675555555,
    "municipality": "Kuopio",
    "county": "North Savo",
    "country": "Finland"
  },
  {
    "name": "Seitakorvan vesivoimalaitos",
    "english_name": "",
    "operator": "Kemijoki Oy",
    "power": "144 MW",
    "source": "hydro",
    "method": "run-of-the-river",
    "wikidata_id": "Q5394629",
    "latitude": 66.4053,
    "longitude": 27.3296,
    "municipality": "Kemijärvi",
    "county": "Lappland",
    "country": "Finland"
  },
  {
    "name": "Louhukankaan tuulivoimapuisto",
    "english_name": "",
    "operator": "Ilmatar Alajärvi–Louhukangas",
    "power": "143 MW",
    "source": "wind",
    "method": "wind_turbine",
    "wikidata_id": "Q124418955",
    "latitude": 62.99697,
    "longitude": 24.13486,
    "municipality": "Alajärvi",
    "county": "South Ostrobothnia",
    "country": "Finland"
  },
  {
    "name": "Taivalkosken vesivoimalaitos",
    "english_name": "",
    "operator": "Kemijoki Oy",
    "power": "133 MW",
    "source": "hydro",
    "method": "run-of-the-river",
    "wikidata_id": "Q11896084",
    "latitude": 65.9307,
    "longitude": 24.7141,
    "municipality": "Keminmaa",
    "county": "Lappland",
    "country": "Finland"
  },
  {
    "name": "Isohaaran vesivoimalaitos",
    "english_name": "",
    "operator": "Pohjolan Voima",
    "power": "128 MW",
    "source": "hydro",
    "method": "run-of-the-river",
    "wikidata_id": "Q18659395",
    "latitude": 65.7928,
    "longitude": 24.5456,
    "municipality": "Keminmaa",
    "county": "Lapland",
    "country": "Finland"
  },
  {
    "name": "Isonevan tuulivoimapuisto",
    "english_name": "",
    "operator": "",
    "power": "126 MW",
    "source": "nominatim",
    "method": "",
    "wikidata_id": null,
    "latitude": 62.5518308,
    "longitude": 22.1485354,
    "municipality": "",
    "county": "",
    "country": "Finland",
    "display_name": "Isonevan turvetuotantoalue, Kurikka, Seinäjoen seutukunta, Etelä-Pohjanmaa, Manner-Suomi, Suomi / Finland"
  },
  {
    "name": "Kaukaan Voima (KauVo)",
    "english_name": "Kaukaan Voima (KauVo) Kaukas Mill Bioenergy Power Plant",
    "operator": "",
    "power": "125 MW",
    "source": "nominatim",
    "method": "",
    "wikidata_id": null,
    "latitude": 61.0659732,
    "longitude": 28.2369634,
    "municipality": "",
    "county": "",
    "country": "Finland",
    "display_name": "Kaukaan Voima (KauVo), Kaukas, Lappeenranta, Lappeenrannan seutukunta, Etelä-Karjala, Manner-Suomi, Suomi / Finland"
  },
  {
    "name": "Ossauskosken voimalaitos",
    "english_name": "",
    "operator": "Kemijoki Oy",
    "power": "124 MW",
    "source": "hydro",
    "method": "",
    "wikidata_id": "Q11994324",
    "latitude": 66.155833,
    "longitude": 25.125556,
    "municipality": "Tervola",
    "county": "Lappland",
    "country": "Finland"
  },
  {
    "name": "Paskoonharjun tuulivoimapuisto",
    "english_name": "",
    "operator": "EPV Tuulivoima Oy",
    "power": "124 MW",
    "source": "nominatim",
    "method": "",
    "wikidata_id": null,
    "latitude": 62.5377096,
    "longitude": 21.7041878,
    "municipality": "",
    "county": "",
    "country": "Finland",
    "display_name": "Paskoonharjun ampumarata, 505, Horontie, Saksanmäki, Horonkylä, Teuva, Suupohjan seutukunta, Etelä-Pohjanmaa, Manner-Suomi, 64700, Suomi / Finland"
  },
  {
    "name": "Seinäjoen voimalaitos",
    "english_name": "",
    "operator": "Seinäjoen voima",
    "power": "120 MW",
    "source": "biomass",
    "method": "",
    "wikidata_id": "Q18661929",
    "latitude": 62.7418,
    "longitude": 22.8156,
    "municipality": "Seinäjoki",
    "county": "South Ostrobothnia",
    "country": "Finland"
  },
  {
    "name": "Toppilan voimalaitos",
    "english_name": "",
    "operator": "Oulun energia",
    "power": "120 MW",
    "source": "biomass",
    "method": "",
    "wikidata_id": "Q796751",
    "latitude": 65.0377818,
    "longitude": 25.4357636,
    "municipality": "Oulu",
    "county": "North Ostrobothnia",
    "country": "Finland"
  },
  {
    "name": "Metsälän tuulivoimapuisto",
    "english_name": "Metsälä Wind Farm",
    "operator": "EPV Tuulivoima",
    "power": "117 MW",
    "source": "wind",
    "method": "",
    "wikidata_id": "Q123458351",
    "latitude": 62.07758,
    "longitude": 21.54082,
    "municipality": "Kristinestad",
    "county": "Ostrobothnia",
    "country": "Finland"
  },
  {
    "name": "Harjavallan vesivoimalaitos",
    "english_name": "",
    "operator": "Länsi-Suomen Voima",
    "power": "105 MW",
    "source": "hydro",
    "method": "",
    "wikidata_id": "Q11861542",
    "latitude": 61.3375,
    "longitude": 22.113611,
    "municipality": "Nakkila",
    "county": "Satakunta",
    "country": "Finland"
  },
  {
    "name": "Norrskogens vindkraftspark",
    "english_name": "",
    "operator": "EPV Tuulivoima",
    "power": "102 MW",
    "source": "wind",
    "method": "wind_turbine",
    "wikidata_id": "Q124476323",
    "latitude": 62.5813,
    "longitude": 21.32091,
    "municipality": "Närpes",
    "county": "Ostrobothnia",
    "country": "Finland"
  },
  {
    "name": "Valajaskosken vesivoimalaitos",
    "english_name": "",
    "operator": "Kemijoki Oy",
    "power": "101 MW",
    "source": "hydro",
    "method": "run-of-the-river",
    "wikidata_id": "Q12008820",
    "latitude": 66.424,
    "longitude": 25.53966667,
    "municipality": "Rovaniemi",
    "county": "Lappland",
    "country": "Finland"
  },
  {
    "name": "Vanttauskosken vesivoimalaitos",
    "english_name": "",
    "operator": "Kemijoki Oy",
    "power": "95 MW",
    "source": "hydro",
    "method": "",
    "wikidata_id": "Q19394279",
    "latitude": 66.36875,
    "longitude": 26.686444444,
    "municipality": "Rovaniemi",
    "county": "Lappland",
    "country": "Finland"
  },
  {
    "name": "Kalajoen Mustilankankaan tuulipuisto",
    "english_name": "",
    "operator": "",
    "power": "92 MW",
    "source": "wind",
    "method": "",
    "wikidata_id": null,
    "latitude": null,
    "longitude": null,
    "municipality": null,
    "county": null,
    "country": null
  },
  {
    "name": "Oltavan tuulivoimapuisto",
    "english_name": "",
    "operator": "",
    "power": "91 MW",
    "source": "nominatim",
    "method": "",
    "wikidata_id": null,
    "latitude": 64.8641374,
    "longitude": 26.6954754,
    "municipality": "",
    "county": "",
    "country": "Finland",
    "display_name": "Oltavantie, Sanginkylä, Utajärvi, Oulunkaaren seutukunta, Pohjois-Pohjanmaa, Manner-Suomi, Suomi / Finland"
  },
  {
    "name": "Kalax vindkraftspark",
    "english_name": "Kalax Wind Farm",
    "operator": "Fortum",
    "power": "90 MW",
    "source": "wind",
    "method": "wind_turbine",
    "wikidata_id": "Q124528018",
    "latitude": 62.5254,
    "longitude": 21.28018,
    "municipality": "Närpes",
    "county": "Ostrobothnia",
    "country": "Finland"
  },
  {
    "name": "Oosinselkä",
    "english_name": "",
    "operator": "Suomen Hyötytuuli Oy",
    "power": "90 MW",
    "source": "nominatim",
    "method": "wind_turbine",
    "wikidata_id": null,
    "latitude": 61.4231994,
    "longitude": 21.57427,
    "municipality": "",
    "county": "",
    "country": "Finland",
    "display_name": "Viasvesi Oosinselkä, Viasvedentie, Viasvesi, Pori, Porin seutukunta, Satakunta, Manner-Suomi, 28660, Suomi / Finland"
  },
  {
    "name": "Kristiinankaupunki, Lakiakangas III",
    "english_name": "",
    "operator": "Helen/CPC Finland Oy",
    "power": "86 MW",
    "source": "wind",
    "method": "",
    "wikidata_id": null,
    "latitude": null,
    "longitude": null,
    "municipality": null,
    "county": null,
    "country": null
  },
  {
    "name": "Nuojuan voimalaitos",
    "english_name": "",
    "operator": "Fortum",
    "power": "85 MW",
    "source": "hydro",
    "method": "run-of-the-river",
    "wikidata_id": "Q19384090",
    "latitude": 64.577388888,
    "longitude": 26.713,
    "municipality": "Vaala",
    "county": "North Ostrobothnia",
    "country": "Finland"
  },
  {
    "name": "Pamilon vesivoimalaitos",
    "english_name": "",
    "operator": "Vattenfall Oy",
    "power": "85 MW",
    "source": "nominatim",
    "method": "water-storage",
    "wikidata_id": null,
    "latitude": 62.8007903,
    "longitude": 30.4288801,
    "municipality": "",
    "county": "",
    "country": "Finland",
    "display_name": "Pamilon vesivoimalaitos, Palovaara, Joensuu, Joensuun seutukunta, Pohjois-Karjala, Manner-Suomi, Suomi / Finland"
  },
  {
    "name": "Alajoki-Peuralinnan tuulipuisto",
    "english_name": "",
    "operator": "Suomen Hyötytuuli",
    "power": "84 MW",
    "source": "wind",
    "method": "wind_turbine",
    "wikidata_id": "Q124734354",
    "latitude": 63.13317,
    "longitude": 24.38215,
    "municipality": "Perho",
    "county": "Central Finland",
    "country": "Finland"
  },
  {
    "name": "Hedet",
    "english_name": "",
    "operator": "",
    "power": "81 MW",
    "source": "wind",
    "method": "",
    "wikidata_id": null,
    "latitude": null,
    "longitude": null,
    "municipality": null,
    "county": null,
    "country": null
  },
  {
    "name": "Möksyn tuulivoimapuisto",
    "english_name": "",
    "operator": "",
    "power": "78 MW",
    "source": "nominatim",
    "method": "",
    "wikidata_id": null,
    "latitude": 63.1215933,
    "longitude": 24.2288818,
    "municipality": "",
    "county": "",
    "country": "Finland",
    "display_name": "Möksyntie, Alajärvi, Järviseudun seutukunta, Etelä-Pohjanmaa, Manner-Suomi, Suomi / Finland"
  },
  {
    "name": "Tohkoja",
    "english_name": "",
    "operator": "wpd Finland Oy",
    "power": "73 MW",
    "source": "wind",
    "method": "",
    "wikidata_id": null,
    "latitude": null,
    "longitude": null,
    "municipality": null,
    "county": null,
    "country": null
  },
  {
    "name": "Mastokankaan tuulivoimapuisto",
    "english_name": "",
    "operator": "",
    "power": "68 MW",
    "source": "nominatim",
    "method": "",
    "wikidata_id": null,
    "latitude": 64.5735738,
    "longitude": 24.7251449,
    "municipality": "",
    "county": "",
    "country": "Finland",
    "display_name": "Mastokankaantie, Raahe, Raahen seutukunta, Pohjois-Pohjanmaa, Manner-Suomi, Suomi / Finland"
  },
  {
    "name": "Melon vesivoimala",
    "english_name": "",
    "operator": "Pohjolan voima",
    "power": "68 MW",
    "source": "hydro",
    "method": "",
    "wikidata_id": "Q14835059",
    "latitude": 61.4632,
    "longitude": 23.43701667,
    "municipality": "Nokia",
    "county": "Pirkanmaa",
    "country": "Finland"
  },
  {
    "name": "Rauman Biovoiman voimalaitos",
    "english_name": "",
    "operator": "Rauman biovoima",
    "power": "65 MW",
    "source": "nominatim",
    "method": "",
    "wikidata_id": null,
    "latitude": 61.1183116,
    "longitude": 21.4782292,
    "municipality": "",
    "county": "",
    "country": "Finland",
    "display_name": "Rauman Biovoiman voimalaitos, Rauman suurteollisuusalue, Rauma, Rauman seutukunta, Satakunta, Manner-Suomi, Suomi / Finland"
  },
  {
    "name": "Tainionkosken voimalaitos",
    "english_name": "Tainionkoski Hydropower Plant",
    "operator": "Fortum",
    "power": "65 MW",
    "source": "hydro",
    "method": "run-of-the-river",
    "wikidata_id": "Q11896016",
    "latitude": 61.21055603,
    "longitude": 28.78527832,
    "municipality": "Imatra",
    "county": "South Karelia",
    "country": "Finland"
  },
  {
    "name": "Raasakan voimalaitos",
    "english_name": "",
    "operator": "Pohjolan Voima",
    "power": "64 MW",
    "source": "hydro",
    "method": "run-of-the-river",
    "wikidata_id": "Q11889609",
    "latitude": 65.333888888,
    "longitude": 25.411944444,
    "municipality": "Ii",
    "county": "North Ostrobothnia",
    "country": "Finland"
  },
  {
    "name": "Helen Aurinkopuisto Kalanti Oy alue 2",
    "english_name": "",
    "operator": "",
    "power": "59 MW",
    "source": "solar",
    "method": "photovoltaic",
    "wikidata_id": null,
    "latitude": null,
    "longitude": null,
    "municipality": null,
    "county": null,
    "country": null
  },
  {
    "name": "Kuuronkallion tuulivoimapuisto",
    "english_name": "",
    "operator": "",
    "power": "59 MW",
    "source": "nominatim",
    "method": "",
    "wikidata_id": null,
    "latitude": 63.0762453,
    "longitude": 24.0142873,
    "municipality": "",
    "county": "",
    "country": "Finland",
    "display_name": "Kuuronkalliontie, Alajärvi, Järviseudun seutukunta, Etelä-Pohjanmaa, Manner-Suomi, Suomi / Finland"
  },
  {
    "name": "Utasen voimalaitos",
    "english_name": "",
    "operator": "Fortum",
    "power": "58 MW",
    "source": "hydro",
    "method": "run-of-the-river",
    "wikidata_id": "Q12008628",
    "latitude": 64.736388888,
    "longitude": 26.478055555,
    "municipality": "Utajärvi",
    "county": "North Ostrobothnia",
    "country": "Finland"
  },
  {
    "name": "Parhalahden tuulivoimapuisto",
    "english_name": "",
    "operator": "",
    "power": "57 MW",
    "source": "nominatim",
    "method": "",
    "wikidata_id": null,
    "latitude": 64.4881585,
    "longitude": 24.3252734,
    "municipality": "",
    "county": "",
    "country": "Finland",
    "display_name": "Parhalahdentie, Pietipuhto, Parhalahti, Pyhäjoki, Raahen seutukunta, Pohjois-Pohjanmaa, Manner-Suomi, Suomi / Finland"
  },
  {
    "name": "Santavuoren tuulivoimapuisto",
    "english_name": "",
    "operator": "EPV Tuulivoima",
    "power": "56 MW",
    "source": "nominatim",
    "method": "",
    "wikidata_id": null,
    "latitude": 60.2233062,
    "longitude": 24.9047703,
    "municipality": "",
    "county": "",
    "country": "Finland",
    "display_name": "Santavuorentie, Pohjois-Haaga, Haaga, Läntinen suurpiiri, Helsinki, Helsingin seutukunta, Uusimaa, Manner-Suomi, 00400, Suomi / Finland"
  },
  {
    "name": "Västervikin tuulivoimapuisto",
    "english_name": "",
    "operator": "Ilmatar",
    "power": "56 MW",
    "source": "nominatim",
    "method": "",
    "wikidata_id": null,
    "latitude": 63.1486495,
    "longitude": 21.5617729,
    "municipality": "",
    "county": "",
    "country": "Finland",
    "display_name": "Västervikin kylä, Gerby, Vaasa, Vaasan seutukunta, Österbotten, Manner-Suomi, Suomi / Finland"
  },
  {
    "name": "Jylhämän voimalaitos",
    "english_name": "",
    "operator": "Fortum Oyj",
    "power": "55 MW",
    "source": "hydro",
    "method": "run-of-the-river",
    "wikidata_id": "Q19376635",
    "latitude": 64.572222,
    "longitude": 26.781944,
    "municipality": "Vaala",
    "county": "North Ostrobothnia",
    "country": "Finland"
  },
  {
    "name": "Torkkolan tuulivoimapuisto",
    "english_name": "",
    "operator": "EPV Tuulivoima",
    "power": "53 MW",
    "source": "wind",
    "method": "",
    "wikidata_id": "Q124958588",
    "latitude": 63.04006,
    "longitude": 22.00037,
    "municipality": "Vaasa",
    "county": "Ostrobothnia",
    "country": "Finland"
  },
  {
    "name": "Kuolavaara-Keulakkopään tuulivoimapuisto",
    "english_name": "Kuolavaara-Keulakkopää Wind Farm",
    "operator": "Kuolavaara-Keulakkopään Tuulipuisto Oy",
    "power": "51 MW",
    "source": "wind",
    "method": "wind_turbine",
    "wikidata_id": null,
    "latitude": null,
    "longitude": null,
    "municipality": null,
    "county": null,
    "country": null
  },
  {
    "name": "Pällin voimalaitos",
    "english_name": "",
    "operator": "Fortum",
    "power": "51 MW",
    "source": "hydro",
    "method": "run-of-the-river",
    "wikidata_id": "Q11889423",
    "latitude": 64.843611111,
    "longitude": 26.194722222,
    "municipality": "Muhos",
    "county": "North Ostrobothnia",
    "country": "Finland"
  },
  {
    "name": "Isojoki, Lakiakangas II",
    "english_name": "",
    "operator": "CPC  Oy",
    "power": "50 MW",
    "source": "wind",
    "method": "",
    "wikidata_id": null,
    "latitude": null,
    "longitude": null,
    "municipality": null,
    "county": null,
    "country": null
  },
  {
    "name": "Joensuun voimalaitos",
    "english_name": "",
    "operator": "Savon voima",
    "power": "50 MW",
    "source": "biomass",
    "method": "",
    "wikidata_id": "Q18659499",
    "latitude": 62.593,
    "longitude": 29.837,
    "municipality": "Joensuu",
    "county": "North Karelia",
    "country": "Finland"
  },
  {
    "name": "Sarvankankaan tuulivoimapuisto",
    "english_name": "",
    "operator": "",
    "power": "48.00 MW",
    "source": "wind",
    "method": "",
    "wikidata_id": null,
    "latitude": null,
    "longitude": null,
    "municipality": null,
    "county": null,
    "country": null
  },
  {
    "name": "Montan voimalaitos",
    "english_name": "",
    "operator": "Fortum Oyj",
    "power": "47.00 MW",
    "source": "hydro",
    "method": "run-of-the-river",
    "wikidata_id": "Q11883198",
    "latitude": 64.820833333,
    "longitude": 26.014444444,
    "municipality": "Muhos",
    "county": "North Ostrobothnia",
    "country": "Finland"
  },
  {
    "name": "Hallakankaan tuulivoimapuisto",
    "english_name": "",
    "operator": "",
    "power": "45.60 MW",
    "source": "nominatim",
    "method": "",
    "wikidata_id": null,
    "latitude": 62.2991266,
    "longitude": 28.0953712,
    "municipality": "",
    "county": "",
    "country": "Finland",
    "display_name": "Hallakankaantie, Kangaslampi, Varkaus, Varkauden seutukunta, Pohjois-Savo, Manner-Suomi, Suomi / Finland"
  },
  {
    "name": "Aittokosken voimalaitos",
    "english_name": "",
    "operator": "Fortum",
    "power": "45.00 MW",
    "source": "hydro",
    "method": "run-of-the-river",
    "wikidata_id": "Q11850248",
    "latitude": 64.83597,
    "longitude": 28.852,
    "municipality": "Suomussalmi",
    "county": "Kainuu",
    "country": "Finland"
  },
  {
    "name": "Kolsin voimalaitos",
    "english_name": "",
    "operator": "",
    "power": "45.00 MW",
    "source": "hydro",
    "method": "run-of-the-river",
    "wikidata_id": "Q11872277",
    "latitude": 61.273333,
    "longitude": 22.355278,
    "municipality": "Kokemäki",
    "county": "Satakunta",
    "country": "Finland"
  },
  {
    "name": "Leipiön tuulivoimapuisto II",
    "english_name": "",
    "operator": "St1 Nordic",
    "power": "45.00 MW",
    "source": "nominatim",
    "method": "wind_turbine",
    "wikidata_id": "Q126042719",
    "latitude": 65.6788904,
    "longitude": 25.0146929,
    "municipality": "",
    "county": "",
    "country": "Finland",
    "display_name": "Leipiönpuisto, Koivuoja, Simo, Kemi-Tornion seutukunta, Lappi, Manner-Suomi, 95200, Suomi / Finland"
  },
  {
    "name": "Nivalan Kaukolämpö",
    "english_name": "",
    "operator": "Nivalan Kaukolämpö Oy",
    "power": "45.00 MW",
    "source": "nominatim",
    "method": "combustion",
    "wikidata_id": null,
    "latitude": 63.922288,
    "longitude": 24.9933951,
    "municipality": "",
    "county": "",
    "country": "Finland",
    "display_name": "Nivalan Kaukolämpö, 5, Nivala, Nivala–Haapajärven seutukunta, Pohjois-Pohjanmaa, Manner-Suomi, 85500, Suomi / Finland"
  },
  {
    "name": "Rustarin tuulipuisto",
    "english_name": "Rustari Wind Farm",
    "operator": "OX2",
    "power": "44.00 MW",
    "source": "wind",
    "method": "wind_turbine",
    "wikidata_id": null,
    "latitude": null,
    "longitude": null,
    "municipality": null,
    "county": null,
    "country": null
  },
  {
    "name": "Pahkakosken voimalaitos",
    "english_name": "",
    "operator": "Pohjolan Voima",
    "power": "42.40 MW",
    "source": "hydro",
    "method": "",
    "wikidata_id": "Q18661156",
    "latitude": 65.3575,
    "longitude": 26.03805556,
    "municipality": "Ii",
    "county": "North Ostrobothnia",
    "country": "Finland"
  },
  {
    "name": "Ajoksen tuulivoimapuisto",
    "english_name": "Ajos Wind Farm",
    "operator": "OX2",
    "power": "42.00 MW",
    "source": "wind",
    "method": "wind_turbine",
    "wikidata_id": "Q11870878",
    "latitude": 65.66274,
    "longitude": 24.54185,
    "municipality": "Kemi",
    "county": "Lappland",
    "country": "Finland"
  },
  {
    "name": "Maaselänkankaan tuulipuisto",
    "english_name": "",
    "operator": "wpd Suomi Oy",
    "power": "41.30 MW",
    "source": "wind",
    "method": "",
    "wikidata_id": null,
    "latitude": null,
    "longitude": null,
    "municipality": null,
    "county": null,
    "country": null
  },
  {
    "name": "Helen Aurinkopuisto Kalanti Oy alue 1",
    "english_name": "",
    "operator": "",
    "power": "41.00 MW",
    "source": "solar",
    "method": "photovoltaic",
    "wikidata_id": null,
    "latitude": null,
    "longitude": null,
    "municipality": null,
    "county": null,
    "country": null
  },
  {
    "name": "Porttipahdan voimalaitos",
    "english_name": "",
    "operator": "Kemijoki Oy",
    "power": "40.50 MW",
    "source": "nominatim",
    "method": "water-storage",
    "wikidata_id": null,
    "latitude": 67.9609518,
    "longitude": 26.7500356,
    "municipality": "",
    "county": "",
    "country": "Finland",
    "display_name": "Porttipahdan voimalaitos, Sodankylä, Pohjois-Lapin seutukunta, Lappi, Manner-Suomi, Suomi / Finland"
  },
  {
    "name": "Helen Aurinkopuisto Kalanti Oy alue 6",
    "english_name": "",
    "operator": "",
    "power": "8.00 MW",
    "source": "solar",
    "method": "photovoltaic",
    "wikidata_id": null,
    "latitude": null,
    "longitude": null,
    "municipality": null,
    "county": null,
    "country": null
  },
  {
    "name": "Juurakko Hybridipuisto - tuulipuisto",
    "english_name": "",
    "operator": "",
    "power": "40.00 MW",
    "source": "wind",
    "method": "",
    "wikidata_id": null,
    "latitude": null,
    "longitude": null,
    "municipality": null,
    "county": null,
    "country": null
  },
  {
    "name": "Merikosken voimalaitos",
    "english_name": "",
    "operator": "Oulun Energia",
    "power": "40.00 MW",
    "source": "hydro",
    "method": "run-of-the-river",
    "wikidata_id": "Q9252547",
    "latitude": 65.02277778,
    "longitude": 25.47333333,
    "municipality": "Oulu",
    "county": "North Ostrobothnia",
    "country": "Finland"
  },
  {
    "name": "Seitenoikean vesivoimalaitos",
    "english_name": "",
    "operator": "Fortum",
    "power": "39.00 MW",
    "source": "hydro",
    "method": "water-storage",
    "wikidata_id": "Q20736805",
    "latitude": 64.59175,
    "longitude": 28.417671,
    "municipality": "Ristijärvi",
    "county": "Kainuu",
    "country": "Finland"
  },
  {
    "name": "Maalismaan voimalaitos",
    "english_name": "",
    "operator": "Pohjolan Voima",
    "power": "38.60 MW",
    "source": "hydro",
    "method": "",
    "wikidata_id": "Q18660702",
    "latitude": 65.310833333,
    "longitude": 25.693333333,
    "municipality": "Oulu",
    "county": "North Ostrobothnia",
    "country": "Finland"
  },
  {
    "name": "Simo Halmekangas Tuuli",
    "english_name": "",
    "operator": "Exilion Tuuli ky",
    "power": "37.95 MW",
    "source": "wind",
    "method": "",
    "wikidata_id": null,
    "latitude": null,
    "longitude": null,
    "municipality": null,
    "county": null,
    "country": null
  },
  {
    "name": "Kierikin voimalaitos",
    "english_name": "",
    "operator": "Pohjolan Voima",
    "power": "37.50 MW",
    "source": "hydro",
    "method": "run-of-the-river",
    "wikidata_id": "Q18660013",
    "latitude": 65.3575,
    "longitude": 26.037777777,
    "municipality": "Oulu",
    "county": "North Ostrobothnia",
    "country": "Finland"
  },
  {
    "name": "Jokelan tuulipuisto",
    "english_name": "",
    "operator": "Suomen Hyötytuuli Oy",
    "power": "36.00 MW",
    "source": "wind",
    "method": "",
    "wikidata_id": null,
    "latitude": null,
    "longitude": null,
    "municipality": null,
    "county": null,
    "country": null
  },
  {
    "name": "Kitkiäisvaaran tuulivoimapuisto",
    "english_name": "",
    "operator": "St1",
    "power": "36.00 MW",
    "source": "wind",
    "method": "wind_turbine",
    "wikidata_id": "Q124788688",
    "latitude": 66.14036,
    "longitude": 24.0529,
    "municipality": "Tornio",
    "county": "Lappland",
    "country": "Finland"
  },
  {
    "name": "Annankankaan tuulivoimapuisto",
    "english_name": "",
    "operator": "",
    "power": "35.00 MW",
    "source": "wind",
    "method": "",
    "wikidata_id": null,
    "latitude": null,
    "longitude": null,
    "municipality": null,
    "county": null,
    "country": null
  },
  {
    "name": "Nikkarinkaarron tuulivoimapuisto",
    "english_name": "",
    "operator": "",
    "power": "35.00 MW",
    "source": "wind",
    "method": "",
    "wikidata_id": null,
    "latitude": null,
    "longitude": null,
    "municipality": null,
    "county": null,
    "country": null
  },
  {
    "name": "Kopsa II",
    "english_name": "",
    "operator": "",
    "power": "33.00 MW",
    "source": "nominatim",
    "method": "",
    "wikidata_id": null,
    "latitude": 64.5822127,
    "longitude": 24.7080794,
    "municipality": "",
    "county": "",
    "country": "Finland",
    "display_name": "Kopsa, Raahe, Raahen seutukunta, Pohjois-Pohjanmaa, Manner-Suomi, Suomi / Finland"
  },
  {
    "name": "Haapakosken voimalaitos",
    "english_name": "",
    "operator": "Pohjolan Voima",
    "power": "32.60 MW",
    "source": "hydro",
    "method": "",
    "wikidata_id": "Q18658792",
    "latitude": 65.329444444,
    "longitude": 26.204722222,
    "municipality": "Oulu",
    "county": "North Ostrobothnia",
    "country": "Finland"
  },
  {
    "name": "Kaltimon voimalaitos",
    "english_name": "",
    "operator": "UPM-Kymmene",
    "power": "32.00 MW",
    "source": "nominatim",
    "method": "",
    "wikidata_id": null,
    "latitude": 62.7697326,
    "longitude": 30.1307118,
    "municipality": "",
    "county": "",
    "country": "Finland",
    "display_name": "Kaltimon voimalaitos, Joensuu, Joensuun seutukunta, Pohjois-Karjala, Manner-Suomi, Suomi / Finland"
  },
  {
    "name": "Suosiolan voimalaitos",
    "english_name": "",
    "operator": "Neve",
    "power": "32.00 MW",
    "source": "nominatim",
    "method": "combustion",
    "wikidata_id": null,
    "latitude": 66.4952004,
    "longitude": 25.6767926,
    "municipality": "",
    "county": "",
    "country": "Finland",
    "display_name": "Suosiolan voimalaitos, 39, Suosiola, Rovaniemi, Rovaniemen seutukunta, Lappi, Manner-Suomi, Suomi / Finland"
  },
  {
    "name": "Kivivaara-Peuravaaran tuulivoimapuisto 1",
    "english_name": "",
    "operator": "Taaleri Energia",
    "power": "30.00 MW",
    "source": "wind",
    "method": "wind_turbine",
    "wikidata_id": "Q128504501",
    "latitude": 64.68608,
    "longitude": 28.65573,
    "municipality": "Hyrynsalmi",
    "county": "Kainuu",
    "country": "Finland"
  },
  {
    "name": "Pajukoski I",
    "english_name": "",
    "operator": "",
    "power": "30.00 MW",
    "source": "nominatim",
    "method": "",
    "wikidata_id": null,
    "latitude": 63.6236416,
    "longitude": 28.7259179,
    "municipality": "",
    "county": "",
    "country": "Finland",
    "display_name": "Pajukoski, Nurmes, Pielisen Karjalan seutukunta, Pohjois-Karjala, Manner-Suomi, Suomi / Finland"
  },
  {
    "name": "Ribäcken vindpark",
    "english_name": "Ribäcken wind farm",
    "operator": "Ribäcken Vindpark",
    "power": "30.00 MW",
    "source": "wind",
    "method": "wind_turbine",
    "wikidata_id": null,
    "latitude": null,
    "longitude": null,
    "municipality": null,
    "county": null,
    "country": null
  },
  {
    "name": "Varevaaran tuulivoimapuisto",
    "english_name": "Varevaara Wind Farm",
    "operator": "Tervola Varevaara Tuuli",
    "power": "30.00 MW",
    "source": "wind",
    "method": "wind_turbine",
    "wikidata_id": "Q124334592",
    "latitude": 66.14191,
    "longitude": 24.87778,
    "municipality": "Tervola",
    "county": "Lappland",
    "country": "Finland"
  },
  {
    "name": "[unnamed]",
    "english_name": "",
    "operator": "",
    "power": "",
    "source": "nominatim",
    "method": "photovoltaic",
    "wikidata_id": null,
    "latitude": 60.8626999,
    "longitude": 22.310943,
    "municipality": "",
    "county": "",
    "country": "Finland",
    "display_name": "Unnamed, Pöytyä, Loimaan seutukunta, Varsinais-Suomi, Manner-Suomi, Suomi / Finland"
  },
  {
    "name": "Mörknässkogens vindkraftspark",
    "english_name": "",
    "operator": "OX2 Finland",
    "power": "29.50 MW",
    "source": "wind",
    "method": "wind_turbine",
    "wikidata_id": "Q126327334",
    "latitude": 63.27887,
    "longitude": 22.51336,
    "municipality": "Vörå",
    "county": "Ostrobothnia",
    "country": "Finland"
  },
  {
    "name": "Kuusankosken voimalaitos",
    "english_name": "",
    "operator": "UPM",
    "power": "29.40 MW",
    "source": "hydro",
    "method": "run-of-the-river",
    "wikidata_id": "Q18660337",
    "latitude": 60.907222,
    "longitude": 26.648889,
    "municipality": "Kouvola",
    "county": "Kymenlaakso",
    "country": "Finland"
  },
  {
    "name": "Storbackens vindkraftspark",
    "english_name": "",
    "operator": "OX2 Finland",
    "power": "29.40 MW",
    "source": "wind",
    "method": "wind_turbine",
    "wikidata_id": "Q131164657",
    "latitude": 63.29761,
    "longitude": 22.46322,
    "municipality": "Vörå",
    "county": "Ostrobothnia",
    "country": "Finland"
  },
  {
    "name": "Helen Aurinkopuisto Kalanti Oy alue 3",
    "english_name": "",
    "operator": "",
    "power": "28.00 MW",
    "source": "solar",
    "method": "photovoltaic",
    "wikidata_id": null,
    "latitude": null,
    "longitude": null,
    "municipality": null,
    "county": null,
    "country": null
  },
  {
    "name": "Ahvenkosken vesivoimalaitos",
    "english_name": "",
    "operator": "Helen Oy",
    "power": "27.00 MW",
    "source": "hydro",
    "method": "run-of-the-river",
    "wikidata_id": "Q11850002",
    "latitude": 60.493972,
    "longitude": 26.45125,
    "municipality": "Pyhtää",
    "county": "Uusimaa",
    "country": "Finland"
  },
  {
    "name": "Kurkiaskan voimalaitos",
    "english_name": "",
    "operator": "Kemijoki Oy",
    "power": "27.00 MW",
    "source": "hydro",
    "method": "water-storage",
    "wikidata_id": null,
    "latitude": null,
    "longitude": null,
    "municipality": null,
    "county": null,
    "country": null
  },
  {
    "name": "Limakon tuulivoimapuisto",
    "english_name": "",
    "operator": "Taaleri Energia",
    "power": "27.00 MW",
    "source": "wind",
    "method": "wind_turbine",
    "wikidata_id": "Q129254527",
    "latitude": 63.21772,
    "longitude": 24.48551,
    "municipality": "Perho",
    "county": "Central Ostrobothnia",
    "country": "Finland"
  },
  {
    "name": "Mankalan voimalaitos",
    "english_name": "",
    "operator": "Helen",
    "power": "27.00 MW",
    "source": "hydro",
    "method": "run-of-the-river",
    "wikidata_id": "Q11880762",
    "latitude": 60.92633333,
    "longitude": 26.26916667,
    "municipality": "Iitti",
    "county": "Päijät-Häme",
    "country": "Finland"
  },
  {
    "name": "Ratiperän tuulipuisto",
    "english_name": "",
    "operator": "ABO Wind Oy",
    "power": "27.00 MW",
    "source": "wind",
    "method": "",
    "wikidata_id": null,
    "latitude": null,
    "longitude": null,
    "municipality": null,
    "county": null,
    "country": null
  },
  {
    "name": "Siikainen Jäneskeidas",
    "english_name": "",
    "operator": "Gigawatti Oy",
    "power": "26.00 MW",
    "source": "wind",
    "method": "",
    "wikidata_id": null,
    "latitude": null,
    "longitude": null,
    "municipality": null,
    "county": null,
    "country": null
  },
  {
    "name": "Jumiskon voimalaitos",
    "english_name": "",
    "operator": "Pohjolan Voima Oyj",
    "power": "25.80 MW",
    "source": "hydro",
    "method": "water-pumped-storage",
    "wikidata_id": "Q18659554",
    "latitude": 66.51,
    "longitude": 27.78,
    "municipality": "Kemijärvi",
    "county": "Lappland",
    "country": "Finland"
  },
  {
    "name": "Kokkosnivan voimalaitos",
    "english_name": "",
    "operator": "Kemijoki Oy",
    "power": "25.00 MW",
    "source": "hydro",
    "method": "water-storage",
    "wikidata_id": null,
    "latitude": null,
    "longitude": null,
    "municipality": null,
    "county": null,
    "country": null
  },
  {
    "name": "Kantin tuulivoimapuisto",
    "english_name": "",
    "operator": "Kantin Tuulipuisto Ky",
    "power": "24.00 MW",
    "source": "nominatim",
    "method": "",
    "wikidata_id": null,
    "latitude": 60.2374531,
    "longitude": 24.8342788,
    "municipality": "",
    "county": "",
    "country": "Finland",
    "display_name": "Kanttiinitie, Painiitty, Uusmäki, Lintuvaara, Suur-Leppävaara, Espoo, Helsingin seutukunta, Uusimaa, Manner-Suomi, 02660, Suomi / Finland"
  },
  {
    "name": "Vartinojan tuulivoimapuisto",
    "english_name": "",
    "operator": "",
    "power": "24.00 MW",
    "source": "wind",
    "method": "",
    "wikidata_id": null,
    "latitude": null,
    "longitude": null,
    "municipality": null,
    "county": null,
    "country": null
  },
  {
    "name": "Leppikosken voimalaitos",
    "english_name": "",
    "operator": "Fortum",
    "power": "23.00 MW",
    "source": "hydro",
    "method": "run-of-the-river",
    "wikidata_id": "Q18682168",
    "latitude": 64.4554468,
    "longitude": 27.8869696,
    "municipality": "Paltamo",
    "county": "Kainuu",
    "country": "Finland"
  },
  {
    "name": "Jouttikallion tuulivoimapuisto",
    "english_name": "Jouttikallio Wind Farm",
    "operator": "OX2",
    "power": "21.00 MW",
    "source": "wind",
    "method": "",
    "wikidata_id": null,
    "latitude": null,
    "longitude": null,
    "municipality": null,
    "county": null,
    "country": null
  },
  {
    "name": "Muukon tuulivoimapuisto",
    "english_name": "",
    "operator": "",
    "power": "21.00 MW",
    "source": "nominatim",
    "method": "",
    "wikidata_id": null,
    "latitude": 61.0820462,
    "longitude": 28.3750154,
    "municipality": "",
    "county": "",
    "country": "Finland",
    "display_name": "Muukon lammikkopuhdistamo, Muukko, Partala, Lappeenranta, Lappeenrannan seutukunta, Etelä-Karjala, Manner-Suomi, Suomi / Finland"
  },
  {
    "name": "Pirttiselän tuulivoimapuisto",
    "english_name": "",
    "operator": "",
    "power": "21.00 MW",
    "source": "nominatim",
    "method": "",
    "wikidata_id": null,
    "latitude": 64.5491987,
    "longitude": 24.748162,
    "municipality": "",
    "county": "",
    "country": "Finland",
    "display_name": "Pirttiseläntie, Raahe, Raahen seutukunta, Pohjois-Pohjanmaa, Manner-Suomi, Suomi / Finland"
  },
  {
    "name": "Vajukosken voimalaitos",
    "english_name": "",
    "operator": "Kemijoki Oy",
    "power": "21.00 MW",
    "source": "hydro",
    "method": "water-storage",
    "wikidata_id": "Q12008811",
    "latitude": 67.695833,
    "longitude": 26.804167,
    "municipality": "Sodankylä",
    "county": "Lappland",
    "country": "Finland"
  },
  {
    "name": "Helen Aurinkopuisto Kalanti Oy alue 5",
    "english_name": "",
    "operator": "",
    "power": "20.00 MW",
    "source": "solar",
    "method": "photovoltaic",
    "wikidata_id": null,
    "latitude": null,
    "longitude": null,
    "municipality": null,
    "county": null,
    "country": null
  },
  {
    "name": "Vesivoimalaitos, Anjala",
    "english_name": "",
    "operator": "",
    "power": "20.00 MW",
    "source": "hydro",
    "method": "run-of-the-river",
    "wikidata_id": "Q25454217",
    "latitude": 60.69771617,
    "longitude": 26.81365768,
    "municipality": "Kouvola",
    "county": "Kymenlaakso",
    "country": "Finland"
  },
  {
    "name": "[unnamed]",
    "english_name": "",
    "operator": "",
    "power": "",
    "source": "nominatim",
    "method": "photovoltaic",
    "wikidata_id": null,
    "latitude": 60.8626999,
    "longitude": 22.310943,
    "municipality": "",
    "county": "",
    "country": "Finland",
    "display_name": "Unnamed, Pöytyä, Loimaan seutukunta, Varsinais-Suomi, Manner-Suomi, Suomi / Finland"
  },
  {
    "name": "Hirvinevan tuulivoimapuisto",
    "english_name": "",
    "operator": "",
    "power": "19.00 MW",
    "source": "nominatim",
    "method": "",
    "wikidata_id": null,
    "latitude": 64.7335006,
    "longitude": 25.2261365,
    "municipality": "",
    "county": "",
    "country": "Finland",
    "display_name": "Hirvinevan rautatieasema, Hirvinevantie, Hirvineva, Liminka, Oulun seutukunta, Pohjois-Pohjanmaa, Manner-Suomi, Suomi / Finland"
  },
  {
    "name": "Kuurnan voimala",
    "english_name": "Kuurna Power Plant; Kuurna Hydro Power Plant",
    "operator": "PKS",
    "power": "18.00 MW",
    "source": "nominatim",
    "method": "",
    "wikidata_id": null,
    "latitude": 62.705091,
    "longitude": 29.8743791,
    "municipality": "",
    "county": "",
    "country": "Finland",
    "display_name": "Kuurnan voimala, 20, Kuurna-Kulhontie, Kuurna, Kontiolahti, Joensuun seutukunta, Pohjois-Karjala, Manner-Suomi, 80850, Suomi / Finland"
  },
  {
    "name": "Leipiön tuulivoimapuisto I",
    "english_name": "",
    "operator": "Simo Leipiö Tuuli",
    "power": "18.00 MW",
    "source": "wind",
    "method": "wind_turbine",
    "wikidata_id": "Q123476836",
    "latitude": 65.67345,
    "longitude": 25.00719,
    "municipality": "Simo",
    "county": "Lappland",
    "country": "Finland"
  },
  {
    "name": "Lieksankoski",
    "english_name": "Lieksankoski hydro power plant",
    "operator": "Kemijoki",
    "power": "18.00 MW",
    "source": "nominatim",
    "method": "run-of-the-river",
    "wikidata_id": null,
    "latitude": 63.3361271,
    "longitude": 30.03812,
    "municipality": "",
    "county": "",
    "country": "Finland",
    "display_name": "Lieksankoski, 21, Alakanavantie, Partalanmäki, Lieksa, Pielisen Karjalan seutukunta, Pohjois-Karjala, Manner-Suomi, 81720, Suomi / Finland"
  },
  {
    "name": "Keltin voimalaitos",
    "english_name": "",
    "operator": "UPM",
    "power": "17.00 MW",
    "source": "hydro",
    "method": "run-of-the-river",
    "wikidata_id": "Q20736983",
    "latitude": 60.8737519,
    "longitude": 26.6149355,
    "municipality": "Kouvola",
    "county": "Kymenlaakso",
    "country": "Finland"
  },
  {
    "name": "Tyrvään voimalaitos",
    "english_name": "",
    "operator": "",
    "power": "16.80 MW",
    "source": "hydro",
    "method": "water-storage",
    "wikidata_id": "Q18662517",
    "latitude": 61.328866,
    "longitude": 22.845876,
    "municipality": "Sastamala",
    "county": "Pirkanmaa",
    "country": "Finland"
  },
  {
    "name": "Äetsän voimalaitos",
    "english_name": "",
    "operator": "UPM Energy Oy",
    "power": "16.00 MW",
    "source": "hydro",
    "method": "run-of-the-river",
    "wikidata_id": "Q11903209",
    "latitude": 61.27871,
    "longitude": 22.696466,
    "municipality": "Sastamala",
    "county": "Pirkanmaa",
    "country": "Finland"
  },
  {
    "name": "Ämmän vesivoimalaitos",
    "english_name": "",
    "operator": "Fortum",
    "power": "16.00 MW",
    "source": "hydro",
    "method": "run-of-the-river",
    "wikidata_id": "Q18682942",
    "latitude": 64.879751,
    "longitude": 28.911778,
    "municipality": "Suomussalmi",
    "county": "Kainuu",
    "country": "Finland"
  },
  {
    "name": "Pankakoski",
    "english_name": "Pankakoski hydro power plant",
    "operator": "Kemijoki",
    "power": "15.60 MW",
    "source": "nominatim",
    "method": "run-of-the-river",
    "wikidata_id": null,
    "latitude": 63.3201326,
    "longitude": 30.1523748,
    "municipality": "",
    "county": "",
    "country": "Finland",
    "display_name": "Pankakoski, Lieksa, Pielisen Karjalan seutukunta, Pohjois-Karjala, Manner-Suomi, Suomi / Finland"
  },
  {
    "name": "Puhdistamontien lämpölaitos",
    "english_name": "",
    "operator": "Vapo Oy",
    "power": "15.40 MW",
    "source": "nominatim",
    "method": "combustion",
    "wikidata_id": null,
    "latitude": 60.5196879,
    "longitude": 24.234715,
    "municipality": "",
    "county": "",
    "country": "Finland",
    "display_name": "Puhdistamontien lämpölaitos, 8, Pitkälä, Karkkila, Helsingin seutukunta, Uusimaa, Manner-Suomi, 03600, Suomi / Finland"
  },
  {
    "name": "Kurittukosken voimalaitos",
    "english_name": "",
    "operator": "Kemijoki Oy",
    "power": "15.00 MW",
    "source": "nominatim",
    "method": "run-of-the-river",
    "wikidata_id": "Q27069738",
    "latitude": 67.8578158,
    "longitude": 26.7132943,
    "municipality": "",
    "county": "",
    "country": "Finland",
    "display_name": "Kurittukosken voimalaitos, Sodankylä, Pohjois-Lapin seutukunta, Lappi, Manner-Suomi, Suomi / Finland"
  },
  {
    "name": "Båtskärs vindkraftspark",
    "english_name": "",
    "operator": "Leovind",
    "power": "14.00 MW",
    "source": "wind",
    "method": "",
    "wikidata_id": "Q124044221",
    "latitude": 59.96368,
    "longitude": 19.95466,
    "municipality": "Lemland",
    "county": "Åland",
    "country": "Finland"
  },
  {
    "name": "Kauttuan voimalaitos",
    "english_name": "",
    "operator": "Adven",
    "power": "14.00 MW",
    "source": "nominatim",
    "method": "",
    "wikidata_id": null,
    "latitude": 61.1071347,
    "longitude": 22.1644922,
    "municipality": "",
    "county": "",
    "country": "Finland",
    "display_name": "Kauttuan voimalaitos, Kauttua, Eura, Rauman seutukunta, Satakunta, Manner-Suomi, Suomi / Finland"
  },
  {
    "name": "Kallioisen voimalaitos",
    "english_name": "",
    "operator": "",
    "power": "13.50 MW",
    "source": "hydro",
    "method": "",
    "wikidata_id": "Q5484823",
    "latitude": 64.093725,
    "longitude": 28.844271,
    "municipality": "Sotkamo",
    "county": "Kainuu",
    "country": "Finland"
  },
  {
    "name": "Juurakko Hybridipuisto - aurinkopuisto",
    "english_name": "",
    "operator": "",
    "power": "13.00 MW",
    "source": "solar",
    "method": "photovoltaic",
    "wikidata_id": null,
    "latitude": null,
    "longitude": null,
    "municipality": null,
    "county": null,
    "country": null
  },
  {
    "name": "Permantokosken vesivoimalaitos",
    "english_name": "",
    "operator": "Kemijoki Oy",
    "power": "13.00 MW",
    "source": "hydro",
    "method": "run-of-the-river",
    "wikidata_id": "Q18661261",
    "latitude": 66.4924147,
    "longitude": 26.1284877,
    "municipality": "Rovaniemi",
    "county": "Lappland",
    "country": "Finland"
  },
  {
    "name": "Katerman voimalaitos",
    "english_name": "",
    "operator": "",
    "power": "12.50 MW",
    "source": "wikidata",
    "method": "",
    "wikidata_id": "Q18659903",
    "latitude": 64.096558,
    "longitude": 28.973754,
    "municipality": "Kuhmo",
    "county": "Kajanaland",
    "country": "Suomi"
  },
  {
    "name": "Hämeenkyrön biovoimalaitos",
    "english_name": "",
    "operator": "",
    "power": "12.00 MW",
    "source": "nominatim",
    "method": "",
    "wikidata_id": null,
    "latitude": 61.6687131,
    "longitude": 23.1865555,
    "municipality": "",
    "county": "",
    "country": "Finland",
    "display_name": "Hämeenkyrön biovoimalaitos, 9, Tehtaantie, Metsä Board Kyro, Kyröskoski, Hämeenkyrö, Tampereen seutukunta, Pirkanmaa, Manner-Suomi, 39200, Suomi / Finland"
  },
  {
    "name": "Kuljunniemi I",
    "english_name": "",
    "operator": "",
    "power": "12.00 MW",
    "source": "wind",
    "method": "",
    "wikidata_id": null,
    "latitude": null,
    "longitude": null,
    "municipality": null,
    "county": null,
    "country": null
  },
  {
    "name": "Helen Aurinkopuisto Kalanti Oy alue 6",
    "english_name": "",
    "operator": "",
    "power": "8.00 MW",
    "source": "solar",
    "method": "photovoltaic",
    "wikidata_id": null,
    "latitude": null,
    "longitude": null,
    "municipality": null,
    "county": null,
    "country": null
  },
  {
    "name": "Kelukosken voimalaitos",
    "english_name": "",
    "operator": "Kemijoki Oy",
    "power": "11.00 MW",
    "source": "hydro",
    "method": "run-of-the-river",
    "wikidata_id": "Q19377064",
    "latitude": 67.45514595,
    "longitude": 26.59536915,
    "municipality": "Sodankylä",
    "county": "Lappland",
    "country": "Finland"
  },
  {
    "name": "Matarakoski",
    "english_name": "",
    "operator": "Kemijoki Oy",
    "power": "11.00 MW",
    "source": "nominatim",
    "method": "water-storage",
    "wikidata_id": null,
    "latitude": 67.585007,
    "longitude": 26.7499947,
    "municipality": "",
    "county": "",
    "country": "Finland",
    "display_name": "Matarakoski, Kersilö, Sodankylä, Pohjois-Lapin seutukunta, Lappi, Manner-Suomi, Suomi / Finland"
  },
  {
    "name": "Portimokosken voimalaitos",
    "english_name": "",
    "operator": "",
    "power": "10.50 MW",
    "source": "hydro",
    "method": "",
    "wikidata_id": "Q65242743",
    "latitude": 66.37866,
    "longitude": 23.78408,
    "municipality": "Ylitornio",
    "county": "Lappland",
    "country": "Finland"
  },
  {
    "name": "Korkeakosken voimalaitos",
    "english_name": "",
    "operator": "Kolsin Voima Oy",
    "power": "10.00 MW",
    "source": "hydro",
    "method": "",
    "wikidata_id": "Q11872611",
    "latitude": 60.53127778,
    "longitude": 26.90802778,
    "municipality": "Kotka",
    "county": "Kymenlaakso",
    "country": "Finland"
  },
  {
    "name": "Niittysmäki-Konkanmäki",
    "english_name": "",
    "operator": "",
    "power": "10.00 MW",
    "source": "wind",
    "method": "",
    "wikidata_id": null,
    "latitude": null,
    "longitude": null,
    "municipality": null,
    "county": null,
    "country": null
  },
  {
    "name": "Salo Märynummi",
    "english_name": "",
    "operator": "Exilion Tuuli ky",
    "power": "10.00 MW",
    "source": "wind",
    "method": "",
    "wikidata_id": null,
    "latitude": null,
    "longitude": null,
    "municipality": null,
    "county": null,
    "country": null
  },
  {
    "name": "Tiprusniemen lämpövoimalaitos",
    "english_name": "",
    "operator": "Savon Voima Oy",
    "power": "10.00 MW",
    "source": "nominatim",
    "method": "combustion",
    "wikidata_id": null,
    "latitude": 63.0850262,
    "longitude": 27.6763567,
    "municipality": "",
    "county": "",
    "country": "Finland",
    "display_name": "Tiprusniemen lämpövoimalaitos, 16, Simonsalo, Siilinjärvi, Kuopion seutukunta, Pohjois-Savo, Manner-Suomi, 71800, Suomi / Finland"
  },
  {
    "name": "Summan tuulivoimapuisto",
    "english_name": "",
    "operator": "",
    "power": "9.00 MW",
    "source": "wind",
    "method": "",
    "wikidata_id": "Q124255372",
    "latitude": 60.54749,
    "longitude": 27.17429,
    "municipality": "Hamina",
    "county": "Kymenlaakso",
    "country": "Finland"
  },
  {
    "name": "OSS Ruotsinoja",
    "english_name": "",
    "operator": "",
    "power": "8.80 MW",
    "source": "nominatim",
    "method": "photovoltaic",
    "wikidata_id": null,
    "latitude": 64.8189854,
    "longitude": 25.45142,
    "municipality": "",
    "county": "",
    "country": "Finland",
    "display_name": "OSS Ruotsinoja, Liminka, Oulun seutukunta, Pohjois-Pohjanmaa, Manner-Suomi, Suomi / Finland"
  },
  {
    "name": "Keskikosken voimalaitos",
    "english_name": "",
    "operator": "Tampereen Energia",
    "power": "8.70 MW",
    "source": "hydro",
    "method": "",
    "wikidata_id": "Q69644030",
    "latitude": 61.500396897,
    "longitude": 23.763158207,
    "municipality": "Tampere",
    "county": "Pirkanmaa",
    "country": "Finland"
  },
  {
    "name": "Biolämpökeskus",
    "english_name": "",
    "operator": "Alajärven Lämpö Oy",
    "power": "8.00 MW",
    "source": "nominatim",
    "method": "combustion",
    "wikidata_id": null,
    "latitude": 63.003378,
    "longitude": 23.7979063,
    "municipality": "",
    "county": "",
    "country": "Finland",
    "display_name": "Biolämpökeskus, 1, Hirsikangas, Alajärvi, Järviseudun seutukunta, Etelä-Pohjanmaa, Manner-Suomi, 62900, Suomi / Finland"
  },
  {
    "name": "Helen Aurinkopuisto Kalanti Oy alue 6",
    "english_name": "",
    "operator": "",
    "power": "8.00 MW",
    "source": "solar",
    "method": "photovoltaic",
    "wikidata_id": null,
    "latitude": null,
    "longitude": null,
    "municipality": null,
    "county": null,
    "country": null
  },
  {
    "name": "Hirvikosken voimalaitos",
    "english_name": "",
    "operator": "Vattenfall",
    "power": "8.00 MW",
    "source": "nominatim",
    "method": "water-storage",
    "wikidata_id": null,
    "latitude": 62.8097875,
    "longitude": 23.0356854,
    "municipality": "",
    "county": "",
    "country": "Finland",
    "display_name": "Hirvikosken voimalaitos, Veneskoski, Ruuhikosken suuralue, Seinäjoki, Seinäjoen seutukunta, Etelä-Pohjanmaa, Manner-Suomi, Suomi / Finland"
  },
  {
    "name": "Kaitfors kraftverk",
    "english_name": "",
    "operator": "Herrfors",
    "power": "7.50 MW",
    "source": "hydro",
    "method": "water-storage",
    "wikidata_id": "Q11869037",
    "latitude": 63.69421,
    "longitude": 23.40128,
    "municipality": "Kronoby",
    "county": "Ostrobothnia",
    "country": "Finland"
  },
  {
    "name": "Hietamankosken voimalaitos",
    "english_name": "",
    "operator": "Vattenfall Oy",
    "power": "7.00 MW",
    "source": "nominatim",
    "method": "",
    "wikidata_id": null,
    "latitude": 62.5991115,
    "longitude": 25.5756327,
    "municipality": "",
    "county": "",
    "country": "Finland",
    "display_name": "Hietamankosken voimalaitos, Hietama, Äänekoski, Äänekosken seutukunta, Keski-Suomi, Manner-Suomi, Suomi / Finland"
  },
  {
    "name": "Mussalon tuulivoimapuisto",
    "english_name": "",
    "operator": "",
    "power": "7.00 MW",
    "source": "wind",
    "method": "",
    "wikidata_id": "Q124666005",
    "latitude": 60.42761,
    "longitude": 26.8873,
    "municipality": "Kotka",
    "county": "Kymenlaakso",
    "country": "Finland"
  },
  {
    "name": "Kirkniemen aurinkopuisto",
    "english_name": "",
    "operator": "Helen",
    "power": "6.80 MW",
    "source": "solar",
    "method": "photovoltaic",
    "wikidata_id": null,
    "latitude": null,
    "longitude": null,
    "municipality": null,
    "county": null,
    "country": null
  },
  {
    "name": "Koivukosken voimalaitos",
    "english_name": "",
    "operator": "Kainuun Voima Oy",
    "power": "6.50 MW",
    "source": "hydro",
    "method": "water-storage",
    "wikidata_id": "Q18660114",
    "latitude": 64.226667,
    "longitude": 27.735556,
    "municipality": "Kajaani",
    "county": "Kainuu",
    "country": "Finland"
  },
  {
    "name": "Hinkuan voimalaitos",
    "english_name": "",
    "operator": "Vattenfall",
    "power": "6.30 MW",
    "source": "hydro",
    "method": "water-storage",
    "wikidata_id": null,
    "latitude": null,
    "longitude": null,
    "municipality": null,
    "county": null,
    "country": null
  },
  {
    "name": "Atrian Aurinko",
    "english_name": "Atria Oyj Solar Power Plant Aurinko",
    "operator": "Atria Oyj",
    "power": "6.00 MW",
    "source": "nominatim",
    "method": "photovoltaic",
    "wikidata_id": null,
    "latitude": 62.8457313,
    "longitude": 22.9554016,
    "municipality": "",
    "county": "",
    "country": "Finland",
    "display_name": "Atrian Aurinko, Huumo, Ruuhikosken suuralue, Seinäjoki, Seinäjoen seutukunta, Etelä-Pohjanmaa, Manner-Suomi, Suomi / Finland"
  },
  {
    "name": "Elkon tuulivoimala",
    "english_name": "",
    "operator": "",
    "power": "6.00 MW",
    "source": "wind",
    "method": "",
    "wikidata_id": null,
    "latitude": null,
    "longitude": null,
    "municipality": null,
    "county": null,
    "country": null
  },
  {
    "name": "Hilmon voimalaitos",
    "english_name": "",
    "operator": "Vattenfall Oy",
    "power": "6.00 MW",
    "source": "nominatim",
    "method": "",
    "wikidata_id": "Q41776578",
    "latitude": 63.0626979,
    "longitude": 25.3351056,
    "municipality": "",
    "county": "",
    "country": "Finland",
    "display_name": "Hilmon voimalaitos, Kannonkoski, Saarijärvi-Viitasaaren seutukunta, Keski-Suomi, Manner-Suomi, Suomi / Finland"
  },
  {
    "name": "Högsåra",
    "english_name": "",
    "operator": "",
    "power": "6.00 MW",
    "source": "nominatim",
    "method": "",
    "wikidata_id": null,
    "latitude": 59.9482422,
    "longitude": 22.3506946,
    "municipality": "",
    "county": "",
    "country": "Finland",
    "display_name": "Högsåra, Kimitoön, Åboland, Varsinais-Suomi, Manner-Suomi, Suomi / Finland"
  },
  {
    "name": "Kyrkösjärven voimalaitos",
    "english_name": "",
    "operator": "Seinäjoen Energia Oy",
    "power": "6.00 MW",
    "source": "nominatim",
    "method": "water-storage",
    "wikidata_id": null,
    "latitude": 62.7702471,
    "longitude": 22.818781,
    "municipality": "",
    "county": "",
    "country": "Finland",
    "display_name": "Kyrkösjärven voimalaitos, Piiri, Seinäjoki, Seinäjoen seutukunta, Etelä-Pohjanmaa, Manner-Suomi, Suomi / Finland"
  },
  {
    "name": "Nummelan lämpölaitos",
    "english_name": "",
    "operator": "Adven Oy",
    "power": "6.00 MW",
    "source": "nominatim",
    "method": "combustion",
    "wikidata_id": null,
    "latitude": 60.32416,
    "longitude": 24.307393,
    "municipality": "",
    "county": "",
    "country": "Finland",
    "display_name": "Nummelan lämpölaitos, 10, Rajanummi, Nummela, Vihti, Helsingin seutukunta, Uusimaa, Manner-Suomi, 03100, Suomi / Finland"
  },
  {
    "name": "Pitkämön voimalaitos",
    "english_name": "",
    "operator": "Koskienergia Koskivoima Oy",
    "power": "6.00 MW",
    "source": "nominatim",
    "method": "water-storage",
    "wikidata_id": "Q20737042",
    "latitude": 62.5850397,
    "longitude": 22.4119012,
    "municipality": "",
    "county": "",
    "country": "Finland",
    "display_name": "Pitkämön voimalaitos, Pitkämönranta, Lusankylä, Kurikka, Seinäjoen seutukunta, Etelä-Pohjanmaa, Manner-Suomi, Suomi / Finland"
  },
  {
    "name": "Riutukari",
    "english_name": "",
    "operator": "",
    "power": "6.00 MW",
    "source": "wind",
    "method": "",
    "wikidata_id": null,
    "latitude": null,
    "longitude": null,
    "municipality": null,
    "county": null,
    "country": null
  },
  {
    "name": "Kiltua",
    "english_name": "",
    "operator": "",
    "power": "5.60 MW",
    "source": "nominatim",
    "method": "run-of-the-river",
    "wikidata_id": "Q18682007",
    "latitude": 63.8279333,
    "longitude": 27.8391641,
    "municipality": "",
    "county": "",
    "country": "Finland",
    "display_name": "Kiltua, Sonkajärvi, Ylä-Savon seutukunta, Pohjois-Savo, Manner-Suomi, Suomi / Finland"
  },
  {
    "name": "Juvan aurinkovoimapuisto",
    "english_name": "",
    "operator": "Solarigo Systems / Lumme",
    "power": "5.20 MW",
    "source": "solar",
    "method": "photovoltaic",
    "wikidata_id": null,
    "latitude": null,
    "longitude": null,
    "municipality": null,
    "county": null,
    "country": null
  },
  {
    "name": "Ämmäkosken voimalaitos",
    "english_name": "",
    "operator": "Kainuun Voima Oy",
    "power": "4.90 MW",
    "source": "hydro",
    "method": "water-storage",
    "wikidata_id": "Q5490165",
    "latitude": 64.229682,
    "longitude": 27.730264,
    "municipality": "Kajaani",
    "county": "Kainuu",
    "country": "Finland"
  },
  {
    "name": "Killinkosken voimalaitos",
    "english_name": "",
    "operator": "Killin Voima",
    "power": "4.50 MW",
    "source": "nominatim",
    "method": "run-of-the-river",
    "wikidata_id": null,
    "latitude": 62.4020352,
    "longitude": 23.882835,
    "municipality": "",
    "county": "",
    "country": "Finland",
    "display_name": "Killinkosken voimalaitos, Killinkoski, Virrat, Ylä-Pirkanmaan seutukunta, Pirkanmaa, Manner-Suomi, Suomi / Finland"
  },
  {
    "name": "Stadsforsens kraftverk",
    "english_name": "",
    "operator": "Nykarleby Kraftverk Ab",
    "power": "4.50 MW",
    "source": "nominatim",
    "method": "run-of-the-river",
    "wikidata_id": null,
    "latitude": 63.5254086,
    "longitude": 22.5287087,
    "municipality": "",
    "county": "",
    "country": "Finland",
    "display_name": "Stadsforsens kraftverk, Nykarleby, Jakobstadsregionen, Österbotten, Manner-Suomi, Suomi / Finland"
  },
  {
    "name": "Huruskosken voimalaitos",
    "english_name": "",
    "operator": "Stora Enso Oyj",
    "power": "4.40 MW",
    "source": "nominatim",
    "method": "",
    "wikidata_id": null,
    "latitude": 62.3176698,
    "longitude": 27.8955809,
    "municipality": "",
    "county": "",
    "country": "Finland",
    "display_name": "Huruskosken voimalaitos, 10, Päiviönsaari, Varkaus, Varkauden seutukunta, Pohjois-Savo, Manner-Suomi, 78201, Suomi / Finland"
  },
  {
    "name": "Yläkosken voimalaitos, Finlayson",
    "english_name": "",
    "operator": "Tampereen Energia",
    "power": "4.40 MW",
    "source": "hydro",
    "method": "",
    "wikidata_id": "Q80831082",
    "latitude": 61.502485927,
    "longitude": 23.759510294,
    "municipality": "Tampere",
    "county": "Pirkanmaa",
    "country": "Finland"
  },
  {
    "name": "Alakosken voimalaitos",
    "english_name": "",
    "operator": "",
    "power": "4.00 MW",
    "source": "hydro",
    "method": "",
    "wikidata_id": "Q81436737",
    "latitude": 61.496111111,
    "longitude": 23.764444444,
    "municipality": "Tampere",
    "county": "Pirkanmaa",
    "country": "Finland"
  },
  {
    "name": "Klåsarön voimalaitos",
    "english_name": "",
    "operator": "Helen Oy",
    "power": "4.00 MW",
    "source": "nominatim",
    "method": "",
    "wikidata_id": null,
    "latitude": 60.5305676,
    "longitude": 26.5253934,
    "municipality": "",
    "county": "",
    "country": "Finland",
    "display_name": "Klåsarön voimalaitos, Loosari, Pyhtää, Kotkan–Haminan seutukunta, Kymenlaakso, Manner-Suomi, Suomi / Finland"
  },
  {
    "name": "Poitzintien kaukolämpölaitos",
    "english_name": "",
    "operator": "Haminan Energia Oy",
    "power": "4.00 MW",
    "source": "nominatim",
    "method": "combustion",
    "wikidata_id": null,
    "latitude": 60.5581097,
    "longitude": 27.1601786,
    "municipality": "",
    "county": "",
    "country": "Finland",
    "display_name": "Poitzintien kaukolämpölaitos, 2, Jamilahti, Hietakylä, Hamina, Kotkan–Haminan seutukunta, Kymenlaakso, Manner-Suomi, 49460, Suomi / Finland"
  },
  {
    "name": "Uljuan voimalaitos",
    "english_name": "",
    "operator": "Vattenfall",
    "power": "4.00 MW",
    "source": "nominatim",
    "method": "run-of-the-river",
    "wikidata_id": "Q22681739",
    "latitude": 64.3362433,
    "longitude": 25.8717174,
    "municipality": "",
    "county": "",
    "country": "Finland",
    "display_name": "Uljuan voimalaitos, Ouluntie, Siikalatva, Haapaveden-Siikalatvan seutukunta, Pohjois-Pohjanmaa, Manner-Suomi, 92610, Suomi / Finland"
  },
  {
    "name": "Kuhankosken voimalaitos",
    "english_name": "",
    "operator": "",
    "power": "3.40 MW",
    "source": "hydro",
    "method": "water-storage",
    "wikidata_id": null,
    "latitude": null,
    "longitude": null,
    "municipality": null,
    "county": null,
    "country": null
  },
  {
    "name": "Yläkosken voimalaitos, Tampella",
    "english_name": "",
    "operator": "Tampereen Energia",
    "power": "3.30 MW",
    "source": "hydro",
    "method": "",
    "wikidata_id": null,
    "latitude": null,
    "longitude": null,
    "municipality": null,
    "county": null,
    "country": null
  },
  {
    "name": "Ruskeakosken voimalaitos",
    "english_name": "",
    "operator": "Pohjois-Karjalan Sähkö Oy",
    "power": "3.20 MW",
    "source": "hydro",
    "method": "run-of-the-river",
    "wikidata_id": "Q11891458",
    "latitude": 62.42697207,
    "longitude": 30.44163714,
    "municipality": "Joensuu",
    "county": "North Karelia",
    "country": "Finland"
  },
  {
    "name": "Kaaranneskosken voimalaitos",
    "english_name": "",
    "operator": "Tornionlaakson Voima",
    "power": "3.00 MW",
    "source": "hydro",
    "method": "run-of-the-river",
    "wikidata_id": "Q18681917",
    "latitude": 66.647,
    "longitude": 24.4261,
    "municipality": "Pello",
    "county": "Lappland",
    "country": "Finland"
  },
  {
    "name": "Verlan voimalaitos",
    "english_name": "",
    "operator": "KSS Energia Oy",
    "power": "3.00 MW",
    "source": "nominatim",
    "method": "",
    "wikidata_id": null,
    "latitude": 61.0622176,
    "longitude": 26.6416675,
    "municipality": "",
    "county": "",
    "country": "Finland",
    "display_name": "Verlan voimalaitos, Verlantie, Suur-Selänpää, Valkealan suuralue, Kouvola, Kouvolan seutukunta, Kymenlaakso, Manner-Suomi, 47850, Suomi / Finland"
  },
  {
    "name": "[unnamed]",
    "english_name": "",
    "operator": "",
    "power": "",
    "source": "nominatim",
    "method": "photovoltaic",
    "wikidata_id": null,
    "latitude": 60.8626999,
    "longitude": 22.310943,
    "municipality": "",
    "county": "",
    "country": "Finland",
    "display_name": "Unnamed, Pöytyä, Loimaan seutukunta, Varsinais-Suomi, Manner-Suomi, Suomi / Finland"
  },
  {
    "name": "Hamarin voimalaitos",
    "english_name": "",
    "operator": "Killin Voima",
    "power": "2.50 MW",
    "source": "hydro",
    "method": "run-of-the-river",
    "wikidata_id": null,
    "latitude": null,
    "longitude": null,
    "municipality": null,
    "county": null,
    "country": null
  },
  {
    "name": "Kattilakosken voimalaitos",
    "english_name": "",
    "operator": "Herrfors",
    "power": "2.30 MW",
    "source": "hydro",
    "method": "run-of-the-river",
    "wikidata_id": "Q116194298",
    "latitude": 63.47015,
    "longitude": 23.30637,
    "municipality": "Evijärvi",
    "county": "South Ostrobothnia",
    "country": "Finland"
  },
  {
    "name": "Knutsboda vindkraftpark",
    "english_name": "",
    "operator": "",
    "power": "2.00 MW",
    "source": "wind",
    "method": "",
    "wikidata_id": "Q124023742",
    "latitude": 60.07926,
    "longitude": 20.02431,
    "municipality": "Lemland",
    "county": "Åland",
    "country": "Finland"
  },
  {
    "name": "LEMENE aurinkovoimala",
    "english_name": "",
    "operator": "Lempäälän Energia Oy",
    "power": "2.00 MW",
    "source": "solar",
    "method": "photovoltaic",
    "wikidata_id": null,
    "latitude": null,
    "longitude": null,
    "municipality": null,
    "county": null,
    "country": null
  },
  {
    "name": "LEMENE aurinkovoimala",
    "english_name": "",
    "operator": "Lempäälän Energia Oy",
    "power": "2.00 MW",
    "source": "solar",
    "method": "photovoltaic",
    "wikidata_id": null,
    "latitude": null,
    "longitude": null,
    "municipality": null,
    "county": null,
    "country": null
  },
  {
    "name": "Pettböle",
    "english_name": "",
    "operator": "",
    "power": "2.00 MW",
    "source": "wind",
    "method": "",
    "wikidata_id": null,
    "latitude": null,
    "longitude": null,
    "municipality": null,
    "county": null,
    "country": null
  },
  {
    "name": "Kuokkastenkosken vesivoimalaitos",
    "english_name": "",
    "operator": "PKS Tuotanto",
    "power": "1.95 MW",
    "source": "nominatim",
    "method": "run-of-the-river",
    "wikidata_id": null,
    "latitude": 63.5402929,
    "longitude": 28.9549528,
    "municipality": "",
    "county": "",
    "country": "Finland",
    "display_name": "Kuokkastenkosken luonnonsuojelualue, Kuokkasenkoskentie, Kuokkastenkoski, Nurmes, Pielisen Karjalan seutukunta, Pohjois-Karjala, Manner-Suomi, Suomi / Finland"
  },
  {
    "name": "Koivukosken voimala",
    "english_name": "",
    "operator": "Kolsin Voima Oy",
    "power": "1.90 MW",
    "source": "hydro",
    "method": "run-of-the-river",
    "wikidata_id": null,
    "latitude": null,
    "longitude": null,
    "municipality": null,
    "county": null,
    "country": null
  },
  {
    "name": "Siikakosken voimala",
    "english_name": "",
    "operator": "",
    "power": "1.80 MW",
    "source": "nominatim",
    "method": "",
    "wikidata_id": null,
    "latitude": 61.0931952,
    "longitude": 26.7129475,
    "municipality": "",
    "county": "",
    "country": "Finland",
    "display_name": "Siikakosken voimala, Vuohijärvi, Valkealan suuralue, Kouvola, Kouvolan seutukunta, Kymenlaakso, Manner-Suomi, 47810, Suomi / Finland"
  },
  {
    "name": "Soilun voimalaitos",
    "english_name": "",
    "operator": "Koskienergia Oy",
    "power": "1.80 MW",
    "source": "nominatim",
    "method": "run-of-the-river",
    "wikidata_id": null,
    "latitude": 65.9389805,
    "longitude": 28.6184513,
    "municipality": "",
    "county": "",
    "country": "Finland",
    "display_name": "Soilun voimalaitos, 222, Kurkijärventie, Kuusamo, Koillismaan seutukunta, Pohjois-Pohjanmaa, Manner-Suomi, Suomi / Finland"
  },
  {
    "name": "Vääräkosken voimala",
    "english_name": "",
    "operator": "Pohjois-Karjalan Sähkö Oy",
    "power": "1.80 MW",
    "source": "hydro",
    "method": "",
    "wikidata_id": "Q5398748",
    "latitude": 62.21437756,
    "longitude": 30.5008625,
    "municipality": "Tohmajärvi",
    "county": "North Karelia",
    "country": "Finland"
  },
  {
    "name": "Kissakosken vesivoimalaitos",
    "english_name": "",
    "operator": "Suur-Savon Sähkö",
    "power": "1.60 MW",
    "source": "nominatim",
    "method": "run-of-the-river",
    "wikidata_id": null,
    "latitude": 61.6261949,
    "longitude": 26.7581834,
    "municipality": "",
    "county": "",
    "country": "Finland",
    "display_name": "Kissakosken kanava, Hirvensalmi, Mikkelin seutukunta, Etelä-Savo, Manner-Suomi, Suomi / Finland"
  },
  {
    "name": "Saarion voimalaitos",
    "english_name": "",
    "operator": "Pohjois-Karjalan Sähkö Oy",
    "power": "1.60 MW",
    "source": "hydro",
    "method": "run-of-the-river",
    "wikidata_id": "Q5411563",
    "latitude": 62.24937406,
    "longitude": 30.49625979,
    "municipality": "Tohmajärvi",
    "county": "North Karelia",
    "country": "Finland"
  },
  {
    "name": "Mäntänkosken voimalaitos",
    "english_name": "",
    "operator": "",
    "power": "1.50 MW",
    "source": "nominatim",
    "method": "",
    "wikidata_id": null,
    "latitude": 62.0263379,
    "longitude": 24.6323876,
    "municipality": "",
    "county": "",
    "country": "Finland",
    "display_name": "Mäntänkosken voimalaitos, Lahdenpohjantie, Asemankulma, Mänttä, Mänttä-Vilppula, Ylä-Pirkanmaan seutukunta, Pirkanmaa, Manner-Suomi, 35820, Suomi / Finland"
  },
  {
    "name": "[unnamed]",
    "english_name": "",
    "operator": "",
    "power": "",
    "source": "nominatim",
    "method": "photovoltaic",
    "wikidata_id": null,
    "latitude": 60.8626999,
    "longitude": 22.310943,
    "municipality": "",
    "county": "",
    "country": "Finland",
    "display_name": "Unnamed, Pöytyä, Loimaan seutukunta, Varsinais-Suomi, Manner-Suomi, Suomi / Finland"
  },
  {
    "name": "Björkfors kraftverk",
    "english_name": "",
    "operator": "",
    "power": "1.40 MW",
    "source": "hydro",
    "method": "run-of-the-river",
    "wikidata_id": "Q116193420",
    "latitude": 63.52147,
    "longitude": 23.21039,
    "municipality": "Pedersöre",
    "county": "Ostrobothnia",
    "country": "Finland"
  },
  {
    "name": "Vihtakosken voimalaitos",
    "english_name": "",
    "operator": "Pohjois-Karjalan Sähkö O",
    "power": "1.40 MW",
    "source": "hydro",
    "method": "run-of-the-river",
    "wikidata_id": "Q18662830",
    "latitude": 62.38236253,
    "longitude": 30.4626374,
    "municipality": "Joensuu",
    "county": "North Karelia",
    "country": "Finland"
  },
  {
    "name": "Juvan voimalaitos",
    "english_name": "",
    "operator": "Koskienergia Oy",
    "power": "1.30 MW",
    "source": "nominatim",
    "method": "water-storage",
    "wikidata_id": null,
    "latitude": 60.5757352,
    "longitude": 22.7597966,
    "municipality": "",
    "county": "",
    "country": "Finland",
    "display_name": "Juvan voimalaitos, 15, Alikulmantie, Tarvasjoki, Lieto, Turun seutukunta, Varsinais-Suomi, Manner-Suomi, 21450, Suomi / Finland"
  },
  {
    "name": "Askalan vesivoimalaitos",
    "english_name": "",
    "operator": "Koskienergia Oy",
    "power": "1.00 MW",
    "source": "nominatim",
    "method": "water-storage",
    "wikidata_id": null,
    "latitude": 60.4860134,
    "longitude": 22.687254,
    "municipality": "",
    "county": "",
    "country": "Finland",
    "display_name": "Askalantie, Askala, Paimio, Turun seutukunta, Varsinais-Suomi, Manner-Suomi, 21530, Suomi / Finland"
  },
  {
    "name": "Juntolankosken voimalaitos",
    "english_name": "",
    "operator": "Koskienergia Oy",
    "power": "1.00 MW",
    "source": "nominatim",
    "method": "water-storage",
    "wikidata_id": null,
    "latitude": 60.5396027,
    "longitude": 22.7032536,
    "municipality": "",
    "county": "",
    "country": "Finland",
    "display_name": "Juntolankosken voimalaitos, Kauppilantie, Paimio, Turun seutukunta, Varsinais-Suomi, Manner-Suomi, Suomi / Finland"
  },
  {
    "name": "Kalajärven voimalaitos",
    "english_name": "Kalajärvi power plant",
    "operator": "Seinäjoen Energia Oy",
    "power": "1.00 MW",
    "source": "nominatim",
    "method": "water-storage",
    "wikidata_id": null,
    "latitude": 62.5508193,
    "longitude": 23.0922504,
    "municipality": "",
    "county": "",
    "country": "Finland",
    "display_name": "Kalajärven voimalaitos, Peräseinäjoen kirkonkylä, Peräseinäjoen suuralue, Seinäjoki, Seinäjoen seutukunta, Etelä-Pohjanmaa, Manner-Suomi, Suomi / Finland"
  },
  {
    "name": "Lumparland",
    "english_name": "",
    "operator": "",
    "power": "1.00 MW",
    "source": "nominatim",
    "method": "",
    "wikidata_id": null,
    "latitude": 60.1168691,
    "longitude": 20.271068,
    "municipality": "",
    "county": "",
    "country": "Finland",
    "display_name": "Lumparland, Ålands landsbygd, Åland, Landskapet Åland, 22630, Suomi / Finland"
  },
  {
    "name": "Kalliomäen tunnelivesivoimalaitos (Päijänne-tunneli)",
    "english_name": "",
    "operator": "",
    "power": "830 kW",
    "source": "nominatim",
    "method": "",
    "wikidata_id": null,
    "latitude": 60.7505757,
    "longitude": 25.0130468,
    "municipality": "",
    "county": "",
    "country": "Finland",
    "display_name": "Kalliomäen tunnelivesivoimalaitos (Päijänne-tunneli), Savelantie, Oitinharju, Oitti, Hausjärvi, Riihimäen seutukunta, Kanta-Häme, Manner-Suomi, 12100, Suomi / Finland"
  },
  {
    "name": "[unnamed]",
    "english_name": "",
    "operator": "",
    "power": "",
    "source": "nominatim",
    "method": "photovoltaic",
    "wikidata_id": null,
    "latitude": 60.8626999,
    "longitude": 22.310943,
    "municipality": "",
    "county": "",
    "country": "Finland",
    "display_name": "Unnamed, Pöytyä, Loimaan seutukunta, Varsinais-Suomi, Manner-Suomi, Suomi / Finland"
  },
  {
    "name": "Mäkelänkosken voimalaitos",
    "english_name": "",
    "operator": "Koskienergia",
    "power": "700 kW",
    "source": "nominatim",
    "method": "",
    "wikidata_id": null,
    "latitude": 62.9082942,
    "longitude": 23.2713114,
    "municipality": "",
    "county": "",
    "country": "Finland",
    "display_name": "Mäkelänkosken voimalaitos, Myllymäentie, Tiistenjoki, Lapua, Seinäjoen seutukunta, Etelä-Pohjanmaa, Manner-Suomi, 62170, Suomi / Finland"
  },
  {
    "name": "Hourunkosken voimalaitos",
    "english_name": "",
    "operator": "Koskienergia",
    "power": "600 kW",
    "source": "nominatim",
    "method": "",
    "wikidata_id": null,
    "latitude": 62.9501876,
    "longitude": 23.1385988,
    "municipality": "",
    "county": "",
    "country": "Finland",
    "display_name": "Hourunkosken voimalaitos, Hourunkoskentie, Haapakoski, Lapua, Seinäjoen seutukunta, Etelä-Pohjanmaa, Manner-Suomi, Suomi / Finland"
  },
  {
    "name": "Ala-Utoksen voimalaitos",
    "english_name": "",
    "operator": "Fortum",
    "power": "500 kW",
    "source": "hydro",
    "method": "",
    "wikidata_id": "Q11850485",
    "latitude": 64.75083333,
    "longitude": 26.45166667,
    "municipality": "Utajärvi",
    "county": "North Ostrobothnia",
    "country": "Finland"
  },
  {
    "name": "Jolmankosken voimalaitos",
    "english_name": "",
    "operator": "Tornionlaakson Voima",
    "power": "500 kW",
    "source": "nominatim",
    "method": "run-of-the-river",
    "wikidata_id": null,
    "latitude": 66.6485585,
    "longitude": 24.6737456,
    "municipality": "",
    "county": "",
    "country": "Finland",
    "display_name": "Jolmankosken voimalaitos, Jolmankoski, Ylitornio, Torniolaakson seutukunta, Lappi, Manner-Suomi, Suomi / Finland"
  },
  {
    "name": "Pirttikosken voimalaitos",
    "english_name": "",
    "operator": "Korpelan Voima",
    "power": "500 kW",
    "source": "hydro",
    "method": "run-of-the-river",
    "wikidata_id": "Q11888264",
    "latitude": 63.551538888,
    "longitude": 23.699469444,
    "municipality": "Kaustinen",
    "county": "Central Ostrobothnia",
    "country": "Finland"
  },
  {
    "name": "[unnamed]",
    "english_name": "",
    "operator": "",
    "power": "",
    "source": "nominatim",
    "method": "photovoltaic",
    "wikidata_id": null,
    "latitude": 60.8626999,
    "longitude": 22.310943,
    "municipality": "",
    "county": "",
    "country": "Finland",
    "display_name": "Unnamed, Pöytyä, Loimaan seutukunta, Varsinais-Suomi, Manner-Suomi, Suomi / Finland"
  },
  {
    "name": "Huopanankosken voimalaitos",
    "english_name": "",
    "operator": "Koskienergia Oy",
    "power": "300 kW",
    "source": "nominatim",
    "method": "run-of-the-river",
    "wikidata_id": null,
    "latitude": 63.0471114,
    "longitude": 25.5298517,
    "municipality": "",
    "county": "",
    "country": "Finland",
    "display_name": "Huopanankosken voimalaitos, Huopanankoski, Viitasaari, Saarijärvi-Viitasaaren seutukunta, Keski-Suomi, Manner-Suomi, Suomi / Finland"
  },
  {
    "name": "Jylhänkosken voimalaitos",
    "english_name": "",
    "operator": "Jylhän sähköosuuskunta",
    "power": "300 kW",
    "source": "nominatim",
    "method": "run-of-the-river",
    "wikidata_id": null,
    "latitude": 63.1091537,
    "longitude": 23.1397411,
    "municipality": "",
    "county": "",
    "country": "Finland",
    "display_name": "Jylhänkosken voimalaitos, 39, Jussilanmäki, Jylhä, Kauhava, Seinäjoen seutukunta, Etelä-Pohjanmaa, Manner-Suomi, Suomi / Finland"
  },
  {
    "name": "Kannuskosken voimalaitos",
    "english_name": "",
    "operator": "",
    "power": "250 kW",
    "source": "hydro",
    "method": "",
    "wikidata_id": "Q11869642",
    "latitude": 60.965278,
    "longitude": 27.243611,
    "municipality": "Kouvola",
    "county": "Kymenlaakso",
    "country": "Finland"
  },
  {
    "name": "Jätekukon aurinkovoimala",
    "english_name": "",
    "operator": "Jätekukko Oy",
    "power": "109 kW",
    "source": "nominatim",
    "method": "photovoltaic",
    "wikidata_id": null,
    "latitude": 62.8317195,
    "longitude": 27.5219276,
    "municipality": "",
    "county": "",
    "country": "Finland",
    "display_name": "Jätekukon aurinkovoimala, 316, Kaatopaikantie, Kylmämäki, Kuopio, Kuopion seutukunta, Pohjois-Savo, Manner-Suomi, 70800, Suomi / Finland"
  },
  {
    "name": "Iloharjun aurinkolämpövoimala",
    "english_name": "",
    "operator": "Kuopion Energia Oy",
    "power": "100 kW",
    "source": "nominatim",
    "method": "thermal",
    "wikidata_id": null,
    "latitude": 62.8888743,
    "longitude": 27.635658,
    "municipality": "",
    "county": "",
    "country": "Finland",
    "display_name": "Iloharjun aurinkolämpövoimala, Savilahti, Kuopio, Kuopion seutukunta, Pohjois-Savo, Manner-Suomi, Suomi / Finland"
  },
  {
    "name": "[unnamed]",
    "english_name": "",
    "operator": "",
    "power": "",
    "source": "nominatim",
    "method": "photovoltaic",
    "wikidata_id": null,
    "latitude": 60.8626999,
    "longitude": 22.310943,
    "municipality": "",
    "county": "",
    "country": "Finland",
    "display_name": "Unnamed, Pöytyä, Loimaan seutukunta, Varsinais-Suomi, Manner-Suomi, Suomi / Finland"
  },
  {
    "name": "[unnamed]",
    "english_name": "",
    "operator": "",
    "power": "",
    "source": "nominatim",
    "method": "photovoltaic",
    "wikidata_id": null,
    "latitude": 60.8626999,
    "longitude": 22.310943,
    "municipality": "",
    "county": "",
    "country": "Finland",
    "display_name": "Unnamed, Pöytyä, Loimaan seutukunta, Varsinais-Suomi, Manner-Suomi, Suomi / Finland"
  },
  {
    "name": "Ala-Vääräkosken voimalaitos",
    "english_name": "",
    "operator": "",
    "power": "",
    "source": "hydro",
    "method": "",
    "wikidata_id": null,
    "latitude": null,
    "longitude": null,
    "municipality": null,
    "county": null,
    "country": null
  },
  {
    "name": "Alahärmän kaukolämpölaitos",
    "english_name": "",
    "operator": "Kauhavan Kaukolämpö Oy",
    "power": "",
    "source": "nominatim",
    "method": "combustion",
    "wikidata_id": null,
    "latitude": 63.2478215,
    "longitude": 22.8472667,
    "municipality": "",
    "county": "",
    "country": "Finland",
    "display_name": "Alahärmän kaukolämpölaitos, 2, Alahärmä, Kauhava, Seinäjoen seutukunta, Etelä-Pohjanmaa, Manner-Suomi, 62300, Suomi / Finland"
  },
  {
    "name": "Aronkylän lämpölaitos",
    "english_name": "",
    "operator": "Kauhajoen Lämpöhuolto Oy",
    "power": "",
    "source": "nominatim",
    "method": "combustion",
    "wikidata_id": null,
    "latitude": 62.4619275,
    "longitude": 22.2060423,
    "municipality": "",
    "county": "",
    "country": "Finland",
    "display_name": "Aronkylän lämpölaitos, 1, Aron teollisuusalue, Kauhajoki, Suupohjan seutukunta, Etelä-Pohjanmaa, Manner-Suomi, 61850, Suomi / Finland"
  },
  {
    "name": "Aurinkopuisto",
    "english_name": "",
    "operator": "Sallila Energia Oy",
    "power": "",
    "source": "nominatim",
    "method": "",
    "wikidata_id": null,
    "latitude": 60.8588733,
    "longitude": 23.075609,
    "municipality": "",
    "county": "",
    "country": "Finland",
    "display_name": "Aurinkopuisto, Peltoinen, Loimaa, Loimaan seutukunta, Varsinais-Suomi, Manner-Suomi, Suomi / Finland"
  },
  {
    "name": "Aurinkovoimala",
    "english_name": "",
    "operator": "",
    "power": "",
    "source": "nominatim",
    "method": "photovoltaic",
    "wikidata_id": null,
    "latitude": 64.6435274,
    "longitude": 24.5011731,
    "municipality": "",
    "county": "",
    "country": "Finland",
    "display_name": "Paarmalan aurinkovoimala, Honganpalo, Raahe, Raahen seutukunta, Pohjois-Pohjanmaa, Manner-Suomi, Suomi / Finland"
  },
  {
    "name": "Biolämpölaitos",
    "english_name": "",
    "operator": "Suur-Savon Sähkö",
    "power": "",
    "source": "nominatim",
    "method": "combustion",
    "wikidata_id": null,
    "latitude": 61.8772716,
    "longitude": 28.8340546,
    "municipality": "",
    "county": "",
    "country": "Finland",
    "display_name": "Biolämpölaitos, Laitaatsilta, Savonlinna, Savonlinnan seutukunta, Etelä-Savo, Manner-Suomi, Suomi / Finland"
  },
  {
    "name": "Ediskoski",
    "english_name": "",
    "operator": "Helen",
    "power": "",
    "source": "hydro",
    "method": "",
    "wikidata_id": null,
    "latitude": null,
    "longitude": null,
    "municipality": null,
    "county": null,
    "country": null
  },
  {
    "name": "Forssan vesivoimala",
    "english_name": "",
    "operator": "",
    "power": "",
    "source": "nominatim",
    "method": "",
    "wikidata_id": null,
    "latitude": 60.8161012,
    "longitude": 23.6200407,
    "municipality": "",
    "county": "",
    "country": "Finland",
    "display_name": "Forssan vesivoimala, Tölö, Forssa, Forssan seutukunta, Kanta-Häme, Manner-Suomi, Suomi / Finland"
  },
  {
    "name": "Fortum Kivenlahden lämpölaitos",
    "english_name": "",
    "operator": "Fortum",
    "power": "",
    "source": "nominatim",
    "method": "combustion",
    "wikidata_id": null,
    "latitude": 60.1608688,
    "longitude": 24.6288649,
    "municipality": "",
    "county": "",
    "country": "Finland",
    "display_name": "Fortum Kivenlahden lämpölaitos, Saunalahti, Suur-Espoonlahti, Espoo, Helsingin seutukunta, Uusimaa, Manner-Suomi, Suomi / Finland"
  },
  {
    "name": "Hervannan hakelämpölaitos",
    "english_name": "",
    "operator": "Tampereen Energia",
    "power": "",
    "source": "nominatim",
    "method": "combustion",
    "wikidata_id": null,
    "latitude": 61.4582881,
    "longitude": 23.8632757,
    "municipality": "",
    "county": "",
    "country": "Finland",
    "display_name": "Hervannan hakelämpölaitos, 3, Hervanta, Kaakkoinen suuralue, Tampere, Tampereen seutukunta, Pirkanmaa, Manner-Suomi, 33720, Suomi / Finland"
  },
  {
    "name": "Hiirikosken Energia Oy",
    "english_name": "",
    "operator": "",
    "power": "",
    "source": "nominatim",
    "method": "",
    "wikidata_id": null,
    "latitude": 63.0076299,
    "longitude": 22.14331,
    "municipality": "",
    "county": "",
    "country": "Finland",
    "display_name": "Hiirikosken Energia Oy, Köpingintie, Vähäkyrö, Vaasa, Vaasan seutukunta, Österbotten, Manner-Suomi, 66440, Suomi / Finland"
  },
  {
    "name": "Hovinsaaren voimalaitos",
    "english_name": "",
    "operator": "Kotkan Energia",
    "power": "",
    "source": "nominatim",
    "method": "",
    "wikidata_id": null,
    "latitude": 60.4710016,
    "longitude": 26.9161983,
    "municipality": "",
    "county": "",
    "country": "Finland",
    "display_name": "Hovinsaaren voimalaitos, Hovinsaari 8, Kotka, Kotkan–Haminan seutukunta, Kymenlaakso, Manner-Suomi, Suomi / Finland"
  },
  {
    "name": "Ikaalisten aurinkopuisto",
    "english_name": "",
    "operator": "",
    "power": "",
    "source": "solar",
    "method": "photovoltaic",
    "wikidata_id": null,
    "latitude": null,
    "longitude": null,
    "municipality": null,
    "county": null,
    "country": null
  },
  {
    "name": "Juotaksen voimalaitos",
    "english_name": "",
    "operator": "Koillislapin sähkö",
    "power": "",
    "source": "nominatim",
    "method": "",
    "wikidata_id": null,
    "latitude": 66.3202984,
    "longitude": 26.9535162,
    "municipality": "",
    "county": "",
    "country": "Finland",
    "display_name": "Juotaksen voimalaitos, 22, Voimalantie, Juotasniemi, Rovaniemi, Rovaniemen seutukunta, Lappi, Manner-Suomi, 97650, Suomi / Finland"
  },
  {
    "name": "Järvenpään voimalaitos",
    "english_name": "",
    "operator": "",
    "power": "",
    "source": "nominatim",
    "method": "combustion",
    "wikidata_id": null,
    "latitude": 60.455399,
    "longitude": 25.1301942,
    "municipality": "",
    "county": "",
    "country": "Finland",
    "display_name": "Järvenpään voimalaitos, Ristinummi, Järvenpää, Helsingin seutukunta, Uusimaa, Manner-Suomi, Suomi / Finland"
  },
  {
    "name": "Karsinakosken voimala",
    "english_name": "",
    "operator": "",
    "power": "",
    "source": "hydro",
    "method": "run-of-the-river",
    "wikidata_id": null,
    "latitude": null,
    "longitude": null,
    "municipality": null,
    "county": null,
    "country": null
  },
  {
    "name": "Kauhavan lämpölaitos",
    "english_name": "",
    "operator": "Kauhavan Kaukolämpö",
    "power": "",
    "source": "nominatim",
    "method": "combustion",
    "wikidata_id": null,
    "latitude": 63.0917224,
    "longitude": 23.0671507,
    "municipality": "",
    "county": "",
    "country": "Finland",
    "display_name": "Kauhavan lämpölaitos, 15, Mäki-Hannus, Koppala, Kauhava, Seinäjoen seutukunta, Etelä-Pohjanmaa, Manner-Suomi, 62200, Suomi / Finland"
  },
  {
    "name": "Kausalan Lämpö OY",
    "english_name": "",
    "operator": "",
    "power": "",
    "source": "nominatim",
    "method": "combustion",
    "wikidata_id": null,
    "latitude": 60.8866814,
    "longitude": 26.3241852,
    "municipality": "",
    "county": "",
    "country": "Finland",
    "display_name": "Kausalan Lämpö OY, Kausala, Iitti, Lahden seutukunta, Päijät-Häme, Manner-Suomi, Suomi / Finland"
  },
  {
    "name": "Kemiön biolämpölaitos",
    "english_name": "",
    "operator": "Kimitoöns Värme Ab",
    "power": "",
    "source": "nominatim",
    "method": "combustion",
    "wikidata_id": null,
    "latitude": 60.171683,
    "longitude": 22.7495378,
    "municipality": "",
    "county": "",
    "country": "Finland",
    "display_name": "Kemiön biolämpölaitos, Kimito, Kimitoön, Åboland, Varsinais-Suomi, Manner-Suomi, 25700, Suomi / Finland"
  },
  {
    "name": "Keravan aurinkovoimala",
    "english_name": "The Kerava Solar Plant",
    "operator": "Keravan Energia Oy",
    "power": "",
    "source": "nominatim",
    "method": "photovoltaic",
    "wikidata_id": null,
    "latitude": 60.4228468,
    "longitude": 25.1250887,
    "municipality": "",
    "county": "",
    "country": "Finland",
    "display_name": "Keravan aurinkovoimala, Ylikerava, Kaskela, Kerava, Helsingin seutukunta, Uusimaa, Manner-Suomi, 04200, Suomi / Finland"
  },
  {
    "name": "Keravan lämpövoimalaitos",
    "english_name": "",
    "operator": "",
    "power": "",
    "source": "nominatim",
    "method": "",
    "wikidata_id": null,
    "latitude": 60.3679803,
    "longitude": 25.1149501,
    "municipality": "",
    "county": "",
    "country": "Finland",
    "display_name": "Keravan lämpövoimalaitos, Alikerava, Kerava, Helsingin seutukunta, Uusimaa, Manner-Suomi, Suomi / Finland"
  },
  {
    "name": "Korvensuunkosken voimalaitos",
    "english_name": "",
    "operator": "",
    "power": "",
    "source": "nominatim",
    "method": "",
    "wikidata_id": null,
    "latitude": 60.6899966,
    "longitude": 21.8351689,
    "municipality": "",
    "county": "",
    "country": "Finland",
    "display_name": "Korvensuunkosken voimalaitos, Korvensuu, Mynämäki, Turun seutukunta, Varsinais-Suomi, Manner-Suomi, Suomi / Finland"
  },
  {
    "name": "Kotkamills Power Station",
    "english_name": "",
    "operator": "",
    "power": "",
    "source": "nominatim",
    "method": "",
    "wikidata_id": null,
    "latitude": 60.4687925,
    "longitude": 26.9584573,
    "municipality": "",
    "county": "",
    "country": "Finland",
    "display_name": "Kotkamills, Mercatorintie, Kantasatama, Kotkansaari 1, Kotka, Kotkan–Haminan seutukunta, Kymenlaakso, Manner-Suomi, 48130, Suomi / Finland"
  },
  {
    "name": "Kymijärvi III",
    "english_name": "",
    "operator": "Lahti Energia",
    "power": "",
    "source": "nominatim",
    "method": "combustion",
    "wikidata_id": null,
    "latitude": 60.9904536,
    "longitude": 25.7202293,
    "municipality": "",
    "county": "",
    "country": "Finland",
    "display_name": "Kymijärvi III, 16, Voimakatu, Kymijärven voimalaitos, Myllypohja, Lahti, Lahden seutukunta, Päijät-Häme, Manner-Suomi, 15170, Suomi / Finland"
  },
  {
    "name": "Laukkosken vesivoimala",
    "english_name": "",
    "operator": "Porvoon energia",
    "power": "",
    "source": "nominatim",
    "method": "run-of-the-river",
    "wikidata_id": null,
    "latitude": 60.4375988,
    "longitude": 25.3684734,
    "municipality": "",
    "county": "",
    "country": "Finland",
    "display_name": "Laukkosken vesivoimala, Mustijoen melontareitti, Jokimäki, Pornainen, Helsingin seutukunta, Uusimaa, Manner-Suomi, 07150, Suomi / Finland"
  },
  {
    "name": "Långnabba wind farm",
    "english_name": "",
    "operator": "",
    "power": "",
    "source": "wind",
    "method": "",
    "wikidata_id": "Q124062530",
    "latitude": 60.16026,
    "longitude": 19.55913,
    "municipality": "Eckerö",
    "county": "Åland",
    "country": "Finland"
  },
  {
    "name": "Metsa Äänekoski (Sellu) Bioproduct Mill power station",
    "english_name": "",
    "operator": "",
    "power": "",
    "source": "nominatim",
    "method": "",
    "wikidata_id": null,
    "latitude": 62.5944686,
    "longitude": 25.7397957,
    "municipality": "",
    "county": "",
    "country": "Finland",
    "display_name": "Metsa Äänekoski (Sellu) Bioproduct Mill power station, Äänekoski, Äänekosken seutukunta, Keski-Suomi, Manner-Suomi, Suomi / Finland"
  },
  {
    "name": "Miilun lämpökeskus",
    "english_name": "",
    "operator": "Outokummun Energia Oy",
    "power": "",
    "source": "nominatim",
    "method": "combustion",
    "wikidata_id": null,
    "latitude": 62.7406893,
    "longitude": 29.0313059,
    "municipality": "",
    "county": "",
    "country": "Finland",
    "display_name": "Miilun lämpökeskus, Kaasila, Outokumpu, Joensuun seutukunta, Pohjois-Karjala, Manner-Suomi, Suomi / Finland"
  },
  {
    "name": "Myllykosken voimala",
    "english_name": "",
    "operator": "",
    "power": "",
    "source": "nominatim",
    "method": "run-of-the-river",
    "wikidata_id": null,
    "latitude": 66.1560276,
    "longitude": 29.5556401,
    "municipality": "",
    "county": "",
    "country": "Finland",
    "display_name": "Myllykosken voimala, Alavuotungintie, Kuusamo, Koillismaan seutukunta, Pohjois-Pohjanmaa, Manner-Suomi, Suomi / Finland"
  },
  {
    "name": "Mäntsälän Biovoima Oy",
    "english_name": "",
    "operator": "Mäntsälän Biovoima Oy",
    "power": "",
    "source": "nominatim",
    "method": "",
    "wikidata_id": null,
    "latitude": 60.5986705,
    "longitude": 25.2510556,
    "municipality": "",
    "county": "",
    "country": "Finland",
    "display_name": "Mäntsälän Biovoima Oy, 387, Mäntsälä, Helsingin seutukunta, Uusimaa, Manner-Suomi, 04600, Suomi / Finland"
  },
  {
    "name": "Oksavan voimalaitos",
    "english_name": "",
    "operator": "",
    "power": "",
    "source": "hydro",
    "method": "run-of-the-river",
    "wikidata_id": null,
    "latitude": null,
    "longitude": null,
    "municipality": null,
    "county": null,
    "country": null
  },
  {
    "name": "Onnelan aurinkovoimala",
    "english_name": "",
    "operator": "Kesko Oyj",
    "power": "",
    "source": "solar",
    "method": "photovoltaic",
    "wikidata_id": null,
    "latitude": null,
    "longitude": null,
    "municipality": null,
    "county": null,
    "country": null
  },
  {
    "name": "Oomi Vihreäsaari 1",
    "english_name": "",
    "operator": "",
    "power": "",
    "source": "nominatim",
    "method": "photovoltaic",
    "wikidata_id": null,
    "latitude": 65.0114035,
    "longitude": 25.4161752,
    "municipality": "",
    "county": "",
    "country": "Finland",
    "display_name": "Oomi Vihreäsaari 1, Vihreäsaari, Tuira, Oulu, Oulun seutukunta, Pohjois-Pohjanmaa, Manner-Suomi, Suomi / Finland"
  },
  {
    "name": "Orapac solkraftverk",
    "english_name": "",
    "operator": "Orapac",
    "power": "",
    "source": "solar",
    "method": "photovoltaic",
    "wikidata_id": null,
    "latitude": null,
    "longitude": null,
    "municipality": null,
    "county": null,
    "country": null
  },
  {
    "name": "Orikedon biolämpökeskus",
    "english_name": "",
    "operator": "Turun Seudun Energiatuotanto Oy",
    "power": "",
    "source": "nominatim",
    "method": "combustion",
    "wikidata_id": null,
    "latitude": 60.4779839,
    "longitude": 22.3146076,
    "municipality": "",
    "county": "",
    "country": "Finland",
    "display_name": "Orikedon biolämpökeskus, 13-15, Oriketo, Nummi-Halinen, Turku, Turun seutukunta, Varsinais-Suomi, Manner-Suomi, Suomi / Finland"
  },
  {
    "name": "Pikikujan lämpölaitos",
    "english_name": "",
    "operator": "Kauhajoen Lämpöhuolto Oy",
    "power": "",
    "source": "nominatim",
    "method": "combustion",
    "wikidata_id": null,
    "latitude": 62.4259949,
    "longitude": 22.1983249,
    "municipality": "",
    "county": "",
    "country": "Finland",
    "display_name": "Pikikujan lämpölaitos, 9, Lellava, Kauhajoki, Suupohjan seutukunta, Etelä-Pohjanmaa, Manner-Suomi, 61800, Suomi / Finland"
  },
  {
    "name": "Porraskosken voimalaitos",
    "english_name": "",
    "operator": "",
    "power": "",
    "source": "nominatim",
    "method": "water-storage",
    "wikidata_id": null,
    "latitude": 61.2497089,
    "longitude": 24.9391109,
    "municipality": "",
    "county": "",
    "country": "Finland",
    "display_name": "Porraskosken voimalaitos, Padontie, Lammi, Porraskoski, Hämeenlinna, Hämeenlinnan seutukunta, Kanta-Häme, Manner-Suomi, Suomi / Finland"
  },
  {
    "name": "Puntarikosken voimalaitos",
    "english_name": "",
    "operator": "",
    "power": "",
    "source": "nominatim",
    "method": "",
    "wikidata_id": null,
    "latitude": 62.6800014,
    "longitude": 29.6503626,
    "municipality": "",
    "county": "",
    "country": "Finland",
    "display_name": "Puntarikosken voimalaitos, Puntarikoskentie, Puntarikoski, Kontiolahti, Joensuun seutukunta, Pohjois-Karjala, Manner-Suomi, 80510, Suomi / Finland"
  },
  {
    "name": "Pöyryn voimala",
    "english_name": "",
    "operator": "",
    "power": "",
    "source": "nominatim",
    "method": "",
    "wikidata_id": null,
    "latitude": 64.7520225,
    "longitude": 24.9218439,
    "municipality": "",
    "county": "",
    "country": "Finland",
    "display_name": "Pöyryn voimala, Siikajoentie, Revonlahti, Siikajoki, Raahen seutukunta, Pohjois-Pohjanmaa, Manner-Suomi, Suomi / Finland"
  },
  {
    "name": "Seepsula 1",
    "english_name": "",
    "operator": "Seepsula oy",
    "power": "",
    "source": "solar",
    "method": "photovoltaic",
    "wikidata_id": null,
    "latitude": null,
    "longitude": null,
    "municipality": null,
    "county": null,
    "country": null
  },
  {
    "name": "Seepsula 2",
    "english_name": "",
    "operator": "Seepsula oy",
    "power": "",
    "source": "solar",
    "method": "photovoltaic",
    "wikidata_id": null,
    "latitude": null,
    "longitude": null,
    "municipality": null,
    "county": null,
    "country": null
  },
  {
    "name": "Sähkötehdas",
    "english_name": "",
    "operator": "Panelian Voima Oy",
    "power": "",
    "source": "nominatim",
    "method": "",
    "wikidata_id": null,
    "latitude": 61.2242579,
    "longitude": 21.9727308,
    "municipality": "",
    "county": "",
    "country": "Finland",
    "display_name": "Sähkötehdas, 32, Paneliantie, Karrankulma, Kiukainen, Eura, Rauman seutukunta, Satakunta, Manner-Suomi, 27430, Suomi / Finland"
  },
  {
    "name": "Topinojan biokaasulaitos",
    "english_name": "",
    "operator": "Gasum Oy",
    "power": "",
    "source": "nominatim",
    "method": "",
    "wikidata_id": null,
    "latitude": 60.4848592,
    "longitude": 22.3354153,
    "municipality": "",
    "county": "",
    "country": "Finland",
    "display_name": "Topinojan biokaasulaitos, 16, Metsämäki, Maaria-Paattinen, Turku, Turun seutukunta, Varsinais-Suomi, Manner-Suomi, 20380, Suomi / Finland"
  },
  {
    "name": "UPM Kymi Mill (Kuusankoski PVO) Power Station",
    "english_name": "",
    "operator": "",
    "power": "",
    "source": "biomass",
    "method": "",
    "wikidata_id": "Q18660336",
    "latitude": null,
    "longitude": null,
    "municipality": null,
    "county": null,
    "country": null
  },
  {
    "name": "UPM-Kymmene Wisapower Biomass Power Station",
    "english_name": "",
    "operator": "",
    "power": "",
    "source": "nominatim",
    "method": "",
    "wikidata_id": null,
    "latitude": 63.7010461,
    "longitude": 22.7121513,
    "municipality": "",
    "county": "",
    "country": "Finland",
    "display_name": "UPM-Kymmene Wisapower Biomass Power Station, Alholmen, Jakobstad, Jakobstadsregionen, Österbotten, Manner-Suomi, Suomi / Finland"
  },
  {
    "name": "Uimaharju Enocell Mill Power Station",
    "english_name": "",
    "operator": "",
    "power": "",
    "source": "nominatim",
    "method": "",
    "wikidata_id": null,
    "latitude": 62.9233155,
    "longitude": 30.2226473,
    "municipality": "",
    "county": "",
    "country": "Finland",
    "display_name": "Uimaharju Enocell Mill Power Station, Uimaharju, Joensuu, Joensuun seutukunta, Pohjois-Karjala, Manner-Suomi, Suomi / Finland"
  },